Drone_ID,Elapsed_ms,Pitch,Roll,Yaw,Velocity_ms,Altitude_m,GPR_Score,Deviation_Flag,Detected_Mine_ID,Camera_Frame_URL,Pos_X,Pos_Y,Pos_Z
drone_1,0,-0.0135,-0.0006,-2.8829,5.039,36.38,0.9719,1,80,http://internal-drone-net/cam/drone_1/frame_00000000.jpg,99.5149,279.8787,36.38
drone_2,0,-0.0133,-0.0182,0.2791,5.1467,37.81,0.9601,1,80,http://internal-drone-net/cam/drone_2/frame_00000000.jpg,100.4851,280.1213,37.81
drone_1,100,0.0164,0.0043,0.2333,5.1415,34.48,0.9853,0,80,http://internal-drone-net/cam/drone_1/frame_00000100.jpg,100.0001,279.9997,34.48
drone_2,100,-0.0378,0.001,0.1214,5.0154,37.16,0.9608,0,80,http://internal-drone-net/cam/drone_2/frame_00000100.jpg,100.9792,280.1978,37.16
drone_1,200,0.0333,-0.0367,0.2191,4.8445,25.59,0.9959,0,80,http://internal-drone-net/cam/drone_1/frame_00000200.jpg,100.4852,280.1206,25.59
drone_2,200,0.0181,0.0212,0.1753,4.9655,31.09,0.9963,0,80,http://internal-drone-net/cam/drone_2/frame_00000200.jpg,101.4733,280.2743,31.09
drone_1,300,-0.0041,-0.0239,0.2125,4.8901,31.53,0.9943,0,80,http://internal-drone-net/cam/drone_1/frame_00000300.jpg,100.9704,280.2415,31.53
drone_2,300,0.0175,0.0134,0.0877,5.0962,34.99,0.9784,0,80,http://internal-drone-net/cam/drone_2/frame_00000300.jpg,101.9674,280.3508,34.99
drone_1,400,-0.0195,0.0184,0.2574,4.982,32.0,0.9683,0,80,http://internal-drone-net/cam/drone_1/frame_00000400.jpg,101.4556,280.3625,32.0
drone_2,400,0.035,0.0118,0.1856,5.127,30.73,0.9875,0,80,http://internal-drone-net/cam/drone_2/frame_00000400.jpg,102.4615,280.4273,30.73
drone_1,500,-0.0273,0.0123,0.1893,5.2165,32.0,0.9611,0,80,http://internal-drone-net/cam/drone_1/frame_00000500.jpg,101.9407,280.4834,32.0
drone_2,500,-0.0029,-0.0033,0.1473,4.885,28.14,0.9978,0,80,http://internal-drone-net/cam/drone_2/frame_00000500.jpg,102.9556,280.5039,28.14
drone_1,600,-0.0234,-0.0038,0.2721,5.0778,28.01,0.962,0,80,http://internal-drone-net/cam/drone_1/frame_00000600.jpg,102.4259,280.6043,28.01
drone_2,600,-0.0095,0.0113,0.1113,5.0706,38.45,0.9938,0,80,http://internal-drone-net/cam/drone_2/frame_00000600.jpg,103.4497,280.5804,38.45
drone_1,700,-0.0061,-0.0265,0.1857,4.9304,30.13,0.9718,0,80,http://internal-drone-net/cam/drone_1/frame_00000700.jpg,102.911,280.7252,30.13
drone_2,700,-0.0166,0.0046,-0.0737,5.0589,33.03,0.9969,0,80,http://internal-drone-net/cam/drone_2/frame_00000700.jpg,104.1298,280.5709,33.03
drone_1,800,0.0357,-0.0102,-0.1187,4.9125,26.53,0.977,0,80,http://internal-drone-net/cam/drone_1/frame_00000800.jpg,103.523,280.6859,26.53
drone_2,800,0.0012,0.0009,-0.0896,5.2865,38.22,0.9825,0,80,http://internal-drone-net/cam/drone_2/frame_00000800.jpg,104.6283,280.5333,38.22
drone_1,900,0.0287,0.0199,-0.1125,4.6261,27.55,0.993,0,80,http://internal-drone-net/cam/drone_1/frame_00000900.jpg,104.0183,280.6175,27.55
drone_2,900,-0.0119,0.0101,-0.0924,5.4131,37.46,0.9794,0,80,http://internal-drone-net/cam/drone_2/frame_00000900.jpg,105.1269,280.4958,37.46
drone_1,1000,-0.0274,0.0053,-0.1133,4.7245,27.97,0.9615,0,80,http://internal-drone-net/cam/drone_1/frame_00001000.jpg,104.5136,280.549,27.97
drone_2,1000,0.0132,-0.0175,-0.1188,5.1033,24.5,0.973,0,80,http://internal-drone-net/cam/drone_2/frame_00001000.jpg,105.6255,280.4582,24.5
drone_1,1100,0.0071,-0.0402,-0.0852,4.9787,24.41,0.9692,0,80,http://internal-drone-net/cam/drone_1/frame_00001100.jpg,105.0089,280.4806,24.41
drone_2,1100,0.027,0.0212,-0.1108,4.9871,31.37,0.9951,0,80,http://internal-drone-net/cam/drone_2/frame_00001100.jpg,106.1241,280.4206,31.37
drone_1,1200,-0.0027,0.0067,-0.1097,5.023,28.62,0.9833,0,80,http://internal-drone-net/cam/drone_1/frame_00001200.jpg,105.5042,280.4121,28.62
drone_2,1200,-0.0061,0.019,0.2361,4.9671,36.83,0.9769,0,80,http://internal-drone-net/cam/drone_2/frame_00001200.jpg,106.7256,280.5051,36.83
drone_1,1300,-0.0472,-0.0473,0.1566,5.1591,35.62,0.9864,0,80,http://internal-drone-net/cam/drone_1/frame_00001300.jpg,106.1098,280.4591,35.62
drone_2,1300,-0.0135,-0.0085,0.2168,4.9033,36.69,0.9932,0,80,http://internal-drone-net/cam/drone_2/frame_00001300.jpg,107.217,280.5978,36.69
drone_1,1400,-0.0003,-0.0117,0.1105,4.9898,33.59,0.9842,0,80,http://internal-drone-net/cam/drone_1/frame_00001400.jpg,106.6059,280.5212,33.59
drone_2,1400,-0.033,-0.0385,0.1849,5.087,28.21,0.9973,0,80,http://internal-drone-net/cam/drone_2/frame_00001400.jpg,107.7083,280.6906,28.21
drone_1,1500,0.0194,-0.0089,0.1104,5.3904,31.22,0.9995,0,80,http://internal-drone-net/cam/drone_1/frame_00001500.jpg,107.102,280.5833,31.22
drone_2,1500,0.0186,-0.0014,0.1674,4.9244,27.74,0.9741,0,80,http://internal-drone-net/cam/drone_2/frame_00001500.jpg,108.1996,280.7833,27.74
drone_1,1600,-0.0205,-0.0206,0.1385,4.9546,38.72,0.9758,0,80,http://internal-drone-net/cam/drone_1/frame_00001600.jpg,107.5982,280.6454,38.72
drone_2,1600,-0.0118,0.0306,0.2035,4.9404,32.35,0.9818,0,80,http://internal-drone-net/cam/drone_2/frame_00001600.jpg,108.6909,280.8761,32.35
drone_1,1700,0.0159,0.0121,0.0983,4.9934,34.44,0.9898,0,80,http://internal-drone-net/cam/drone_1/frame_00001700.jpg,108.0943,280.7074,34.44
drone_2,1700,0.0025,0.0187,0.4395,5.0457,33.19,0.9791,0,80,http://internal-drone-net/cam/drone_2/frame_00001700.jpg,109.2501,281.1133,33.19
drone_1,1800,0.0149,0.0055,0.3479,4.7904,33.06,0.9992,0,80,http://internal-drone-net/cam/drone_1/frame_00001800.jpg,108.6671,280.9095,33.06
drone_2,1800,-0.0225,0.0081,0.4076,4.9678,36.75,0.9666,0,80,http://internal-drone-net/cam/drone_2/frame_00001800.jpg,109.7007,281.3301,36.75
drone_1,1900,0.0334,-0.0014,0.3636,4.9811,35.89,0.9808,0,80,http://internal-drone-net/cam/drone_1/frame_00001900.jpg,109.1303,281.0979,35.89
drone_2,1900,-0.0142,-0.0141,0.4808,4.8718,28.4,0.9634,0,80,http://internal-drone-net/cam/drone_2/frame_00001900.jpg,110.1512,281.5468,28.4
drone_1,2000,-0.0194,0.0071,0.3158,5.1437,28.46,0.9966,0,80,http://internal-drone-net/cam/drone_1/frame_00002000.jpg,109.5934,281.2863,28.46
drone_2,2000,0.0163,0.0024,0.4275,5.0261,28.7,0.9613,0,80,http://internal-drone-net/cam/drone_2/frame_00002000.jpg,110.6018,281.7636,28.7
drone_1,2100,0.0021,0.0136,0.4262,5.0224,37.33,0.9829,0,80,http://internal-drone-net/cam/drone_1/frame_00002100.jpg,110.0566,281.4747,37.33
drone_2,2100,-0.032,0.0035,0.4888,4.9568,37.86,0.9944,0,80,http://internal-drone-net/cam/drone_2/frame_00002100.jpg,111.0524,281.9804,37.86
drone_1,2200,-0.0192,-0.0252,0.3229,5.0192,38.25,0.9695,0,80,http://internal-drone-net/cam/drone_1/frame_00002200.jpg,110.5198,281.6631,38.25
drone_2,2200,-0.006,0.0124,0.6776,5.2418,29.83,0.9834,0,80,http://internal-drone-net/cam/drone_2/frame_00002200.jpg,111.5311,282.3543,29.83
drone_1,2300,-0.02,-0.0134,0.6299,5.1017,30.3,0.9795,0,80,http://internal-drone-net/cam/drone_1/frame_00002300.jpg,111.0208,282.0065,30.3
drone_2,2300,-0.014,0.0001,0.7148,5.2723,38.02,0.9721,0,80,http://internal-drone-net/cam/drone_2/frame_00002300.jpg,111.9102,282.6802,38.02
drone_1,2400,0.0318,-0.0219,0.6449,5.3388,38.32,0.9764,0,80,http://internal-drone-net/cam/drone_1/frame_00002400.jpg,111.4194,282.3084,38.32
drone_2,2400,-0.0065,0.0338,0.7364,4.8878,25.91,0.9675,0,80,http://internal-drone-net/cam/drone_2/frame_00002400.jpg,112.2894,283.0062,25.91
drone_1,2500,-0.0216,0.0174,0.6415,4.9815,37.01,0.9714,0,80,http://internal-drone-net/cam/drone_1/frame_00002500.jpg,111.818,282.6102,37.01
drone_2,2500,-0.0181,0.0158,0.7351,5.2389,38.44,0.9875,0,80,http://internal-drone-net/cam/drone_2/frame_00002500.jpg,112.6685,283.3322,38.44
drone_1,2600,0.0101,0.0337,0.6016,5.0338,26.93,0.9709,0,80,http://internal-drone-net/cam/drone_1/frame_00002600.jpg,112.2166,282.912,26.93
drone_2,2600,0.0075,-0.0261,0.6963,5.0798,27.38,0.9841,0,80,http://internal-drone-net/cam/drone_2/frame_00002600.jpg,113.0476,283.6582,27.38
drone_1,2700,-0.0051,0.0287,0.595,4.8901,27.85,0.9789,0,80,http://internal-drone-net/cam/drone_1/frame_00002700.jpg,112.6152,283.2139,27.85
drone_2,2700,-0.0407,0.0039,0.979,5.2766,23.78,0.9963,0,80,http://internal-drone-net/cam/drone_2/frame_00002700.jpg,113.4132,284.1433,23.78
drone_1,2800,0.006,0.0141,0.9062,4.9523,35.43,0.9669,0,80,http://internal-drone-net/cam/drone_1/frame_00002800.jpg,113.0103,283.6753,35.43
drone_2,2800,0.0014,0.0131,0.983,4.8581,24.36,0.9969,0,80,http://internal-drone-net/cam/drone_2/frame_00002800.jpg,113.6951,284.5563,24.36
drone_1,2900,0.021,-0.0112,0.9481,5.18,32.99,0.9629,0,80,http://internal-drone-net/cam/drone_1/frame_00002900.jpg,113.3172,284.07,32.99
drone_2,2900,-0.0153,-0.0124,1.0385,4.8873,28.68,0.9798,0,80,http://internal-drone-net/cam/drone_2/frame_00002900.jpg,113.9769,284.9693,28.68
drone_1,3000,-0.0013,0.0126,0.8579,4.8824,30.02,0.9663,0,80,http://internal-drone-net/cam/drone_1/frame_00003000.jpg,113.6241,284.4647,30.02
drone_2,3000,-0.007,0.0154,0.9627,5.094,35.42,0.9831,0,80,http://internal-drone-net/cam/drone_2/frame_00003000.jpg,114.2587,285.3823,35.42
drone_1,3100,0.0152,0.024,0.9088,5.2933,35.54,0.9877,0,80,http://internal-drone-net/cam/drone_1/frame_00003100.jpg,113.931,284.8595,35.54
drone_2,3100,0.0207,-0.005,0.9515,4.963,31.54,0.9775,0,80,http://internal-drone-net/cam/drone_2/frame_00003100.jpg,114.5405,285.7953,31.54
drone_1,3200,0.0041,-0.0133,0.8792,4.9409,28.82,0.9649,0,80,http://internal-drone-net/cam/drone_1/frame_00003200.jpg,114.2379,285.2542,28.82
drone_2,3200,0.0102,-0.0083,1.2442,5.1627,27.77,0.9724,0,80,http://internal-drone-net/cam/drone_2/frame_00003200.jpg,114.7682,286.3584,27.77
drone_1,3300,-0.0071,0.0576,1.1827,4.7968,29.52,0.9817,0,80,http://internal-drone-net/cam/drone_1/frame_00003300.jpg,114.5001,285.8021,29.52
drone_2,3300,0.0065,-0.0104,1.2537,5.1427,29.61,0.961,0,80,http://internal-drone-net/cam/drone_2/frame_00003300.jpg,114.9335,286.8303,29.61
drone_1,3400,-0.0037,-0.0041,1.1651,4.9464,30.13,0.973,0,80,http://internal-drone-net/cam/drone_1/frame_00003400.jpg,114.6944,286.2628,30.13
drone_2,3400,-0.0211,-0.0165,1.2227,4.9897,38.44,0.9902,0,80,http://internal-drone-net/cam/drone_2/frame_00003400.jpg,115.0988,287.3022,38.44
drone_1,3500,0.0122,0.0078,1.2294,4.8193,32.14,0.9901,0,80,http://internal-drone-net/cam/drone_1/frame_00003500.jpg,114.8887,286.7235,32.14
drone_2,3500,-0.0137,0.0067,1.2087,5.2485,32.19,0.9628,0,80,http://internal-drone-net/cam/drone_2/frame_00003500.jpg,115.2642,287.7741,32.19
drone_1,3600,-0.017,-0.0239,1.1997,4.7816,34.86,0.9708,0,80,http://internal-drone-net/cam/drone_1/frame_00003600.jpg,115.083,287.1842,34.86
drone_2,3600,0.0226,-0.0005,1.1753,4.9981,34.7,0.9892,0,80,http://internal-drone-net/cam/drone_2/frame_00003600.jpg,115.4295,288.2459,34.7
drone_1,3700,0.0019,-0.0097,1.1732,4.8048,34.24,0.9656,0,80,http://internal-drone-net/cam/drone_1/frame_00003700.jpg,115.2773,287.6449,34.24
drone_2,3700,0.0073,0.0155,1.4501,5.1628,35.1,0.9647,0,80,http://internal-drone-net/cam/drone_2/frame_00003700.jpg,115.5036,288.8488,35.1
drone_1,3800,0.0066,0.0042,1.4735,5.0032,35.07,0.976,0,80,http://internal-drone-net/cam/drone_1/frame_00003800.jpg,115.3886,288.2421,35.07
drone_2,3800,-0.0088,0.0051,1.486,5.1497,25.64,0.9718,0,80,http://internal-drone-net/cam/drone_2/frame_00003800.jpg,115.5412,289.3474,25.64
drone_1,3900,0.0187,0.0219,1.4145,5.1527,38.24,0.9672,0,80,http://internal-drone-net/cam/drone_1/frame_00003900.jpg,115.4571,288.7374,38.24
drone_2,3900,-0.0368,-0.0146,1.4832,4.9847,31.8,0.9693,0,80,http://internal-drone-net/cam/drone_2/frame_00003900.jpg,115.5788,289.846,31.8
drone_1,4000,-0.0213,-0.0303,1.4585,5.0444,33.13,0.9772,0,80,http://internal-drone-net/cam/drone_1/frame_00004000.jpg,115.5255,289.2327,33.13
drone_2,4000,-0.0107,0.0067,1.5414,4.9237,25.15,0.9662,0,80,http://internal-drone-net/cam/drone_2/frame_00004000.jpg,115.6163,290.3446,25.15
drone_1,4100,-0.0201,0.0006,1.4756,5.0487,25.4,0.9814,0,80,http://internal-drone-net/cam/drone_1/frame_00004100.jpg,115.594,289.728,25.4
drone_2,4100,0.0261,-0.02,1.539,5.1491,37.6,0.9674,0,80,http://internal-drone-net/cam/drone_2/frame_00004100.jpg,115.6539,290.8432,37.6
drone_1,4200,-0.0129,-0.0199,1.4431,4.9067,24.07,0.9918,0,80,http://internal-drone-net/cam/drone_1/frame_00004200.jpg,115.6624,290.2233,24.07
drone_2,4200,-0.028,-0.0101,1.7293,5.1384,27.11,0.9978,0,80,http://internal-drone-net/cam/drone_2/frame_00004200.jpg,115.5695,291.4447,27.11
drone_1,4300,0.0167,-0.0177,1.674,5.0716,40.07,0.9852,0,80,http://internal-drone-net/cam/drone_1/frame_00004300.jpg,115.6154,290.8289,40.07
drone_2,4300,0.0179,-0.0261,1.7273,5.3664,30.76,0.9933,0,80,http://internal-drone-net/cam/drone_2/frame_00004300.jpg,115.4767,291.936,30.76
drone_1,4400,0.0026,-0.028,1.7105,5.0402,29.85,0.9769,0,80,http://internal-drone-net/cam/drone_1/frame_00004400.jpg,115.5533,291.325,29.85
drone_2,4400,0.0473,-0.0372,1.7701,5.0241,28.77,0.9794,0,80,http://internal-drone-net/cam/drone_2/frame_00004400.jpg,115.384,292.4274,28.77
drone_1,4500,-0.0126,-0.004,1.7255,5.3153,33.02,0.9827,0,80,http://internal-drone-net/cam/drone_1/frame_00004500.jpg,115.4913,291.8211,33.02
drone_2,4500,0.0081,-0.0013,1.7224,5.1262,30.88,0.9923,0,80,http://internal-drone-net/cam/drone_2/frame_00004500.jpg,115.2912,292.9187,30.88
drone_1,4600,-0.0224,0.0223,1.7069,5.0103,34.89,0.9705,0,80,http://internal-drone-net/cam/drone_1/frame_00004600.jpg,115.4292,292.3173,34.89
drone_2,4600,-0.0033,-0.014,1.7294,4.6203,31.76,0.9945,0,80,http://internal-drone-net/cam/drone_2/frame_00004600.jpg,115.1985,293.41,31.76
drone_1,4700,-0.0088,-0.0248,1.6989,4.8144,34.13,0.9849,0,80,http://internal-drone-net/cam/drone_1/frame_00004700.jpg,115.3671,292.8134,34.13
drone_2,4700,0.0071,0.0037,2.0237,5.2303,30.79,0.994,0,80,http://internal-drone-net/cam/drone_2/frame_00004700.jpg,114.9612,293.9692,30.79
drone_1,4800,0.0132,0.0367,1.9724,4.8194,34.41,0.9636,0,80,http://internal-drone-net/cam/drone_1/frame_00004800.jpg,115.165,293.3862,34.41
drone_2,4800,0.0082,-0.0117,2.0681,4.975,35.42,0.9678,0,80,http://internal-drone-net/cam/drone_2/frame_00004800.jpg,114.7444,294.4198,35.42
drone_1,4900,-0.0085,-0.0045,1.9522,5.0008,26.4,0.9939,0,80,http://internal-drone-net/cam/drone_1/frame_00004900.jpg,114.9766,293.8494,26.4
drone_2,4900,-0.04,-0.0087,2.0047,4.7911,30.47,0.9886,0,80,http://internal-drone-net/cam/drone_2/frame_00004900.jpg,114.5277,294.8703,30.47
drone_1,5000,0.0246,-0.0105,1.978,4.9394,34.15,0.9932,0,80,http://internal-drone-net/cam/drone_1/frame_00005000.jpg,114.7882,294.3125,34.15
drone_2,5000,-0.0144,0.0328,1.9885,5.108,25.14,0.9953,0,80,http://internal-drone-net/cam/drone_2/frame_00005000.jpg,114.3109,295.3209,25.14
drone_1,5100,0.04,0.0094,1.9089,4.7902,32.48,0.9713,0,80,http://internal-drone-net/cam/drone_1/frame_00005100.jpg,114.5998,294.7757,32.48
drone_2,5100,0.0167,0.0048,2.0529,5.1404,38.46,0.9969,0,80,http://internal-drone-net/cam/drone_2/frame_00005100.jpg,114.0942,295.7715,38.46
drone_1,5200,0.0214,0.0367,1.9715,4.9665,38.35,0.9841,0,80,http://internal-drone-net/cam/drone_1/frame_00005200.jpg,114.4115,295.2388,38.35
drone_2,5200,0.0139,-0.0208,2.2434,4.8343,25.54,0.9896,0,80,http://internal-drone-net/cam/drone_2/frame_00005200.jpg,113.7203,296.2502,25.54
drone_1,5300,0.0093,-0.0039,2.2396,4.7712,39.33,0.9717,0,80,http://internal-drone-net/cam/drone_1/frame_00005300.jpg,114.068,295.7398,39.33
drone_2,5300,-0.0013,0.0188,2.2854,5.0551,37.92,0.9712,0,80,http://internal-drone-net/cam/drone_2/frame_00005300.jpg,113.3943,296.6293,37.92
drone_1,5400,0.0222,-0.0145,2.2013,4.8374,37.81,0.988,0,80,http://internal-drone-net/cam/drone_1/frame_00005400.jpg,113.7662,296.1385,37.81
drone_2,5400,-0.0033,-0.0086,2.2404,4.9427,25.94,0.9971,0,80,http://internal-drone-net/cam/drone_2/frame_00005400.jpg,113.0683,297.0084,25.94
drone_1,5500,0.026,-0.0258,2.1967,5.1593,26.25,0.9659,0,80,http://internal-drone-net/cam/drone_1/frame_00005500.jpg,113.4643,296.5371,26.25
drone_2,5500,-0.0241,-0.0009,2.3021,5.0676,34.01,0.9741,0,80,http://internal-drone-net/cam/drone_2/frame_00005500.jpg,112.7423,297.3876,34.01
drone_1,5600,0.0391,-0.0188,2.1913,5.0453,26.8,0.9851,0,80,http://internal-drone-net/cam/drone_1/frame_00005600.jpg,113.1625,296.9357,26.8
drone_2,5600,-0.0307,0.0118,2.3062,5.0795,27.51,0.9884,0,80,http://internal-drone-net/cam/drone_2/frame_00005600.jpg,112.4163,297.7667,27.51
drone_1,5700,-0.0076,0.0001,2.2093,4.9525,29.04,0.9606,0,80,http://internal-drone-net/cam/drone_1/frame_00005700.jpg,112.8607,297.3343,29.04
drone_2,5700,-0.0124,0.0091,2.5429,4.9315,30.47,0.9635,0,80,http://internal-drone-net/cam/drone_2/frame_00005700.jpg,111.9313,298.1323,30.47
drone_1,5800,0.0065,0.0169,2.5101,4.9369,34.39,0.9952,0,80,http://internal-drone-net/cam/drone_1/frame_00005800.jpg,112.3992,297.7293,34.39
drone_2,5800,-0.0082,0.0107,2.5729,4.8664,27.7,0.9956,0,80,http://internal-drone-net/cam/drone_2/frame_00005800.jpg,111.5183,298.4141,27.7
drone_1,5900,-0.0153,-0.0148,2.4434,5.0208,28.7,0.9837,0,80,http://internal-drone-net/cam/drone_1/frame_00005900.jpg,112.0045,298.0363,28.7
drone_2,5900,0.0126,0.029,2.5525,4.9107,39.75,0.974,0,80,http://internal-drone-net/cam/drone_2/frame_00005900.jpg,111.1053,298.696,39.75
drone_1,6000,0.0224,-0.0133,2.4701,5.0401,35.64,0.968,0,80,http://internal-drone-net/cam/drone_1/frame_00006000.jpg,111.6098,298.3432,35.64
drone_2,6000,-0.008,0.0302,2.5458,5.006,32.74,0.963,0,80,http://internal-drone-net/cam/drone_2/frame_00006000.jpg,110.6922,298.9778,32.74
drone_1,6100,0.0081,0.0244,2.5024,4.7769,39.65,0.9766,0,80,http://internal-drone-net/cam/drone_1/frame_00006100.jpg,111.2151,298.6501,39.65
drone_2,6100,0.0158,0.0032,2.4965,5.0942,35.82,0.9745,0,80,http://internal-drone-net/cam/drone_2/frame_00006100.jpg,110.2792,299.2596,35.82
drone_1,6200,-0.0103,-0.0082,2.4415,5.1788,33.64,0.9713,0,80,http://internal-drone-net/cam/drone_1/frame_00006200.jpg,110.8204,298.957,33.64
drone_2,6200,0.05,0.0222,2.7796,4.741,27.13,0.9744,0,80,http://internal-drone-net/cam/drone_2/frame_00006200.jpg,109.7161,299.4873,27.13
drone_1,6300,0.0147,0.0047,2.7713,4.7575,40.38,0.9933,0,80,http://internal-drone-net/cam/drone_1/frame_00006300.jpg,110.2724,299.2191,40.38
drone_2,6300,0.0158,-0.0272,2.8224,5.2256,26.17,0.9967,0,80,http://internal-drone-net/cam/drone_2/frame_00006300.jpg,109.2442,299.6526,26.17
drone_1,6400,-0.0061,-0.0015,2.7582,5.135,37.35,0.9849,0,80,http://internal-drone-net/cam/drone_1/frame_00006400.jpg,109.8117,299.4134,37.35
drone_2,6400,0.0107,0.0026,2.7788,5.04,28.63,0.9926,0,80,http://internal-drone-net/cam/drone_2/frame_00006400.jpg,108.7723,299.8179,28.63
drone_1,6500,0.0357,-0.0014,2.73,4.907,30.18,0.986,0,80,http://internal-drone-net/cam/drone_1/frame_00006500.jpg,109.351,299.6077,30.18
drone_2,6500,-0.0273,0.0125,2.8265,4.7771,40.82,0.9953,0,80,http://internal-drone-net/cam/drone_2/frame_00006500.jpg,108.3005,299.9833,40.82
drone_1,6600,0.004,0.019,2.7285,5.0781,32.93,0.9672,0,80,http://internal-drone-net/cam/drone_1/frame_00006600.jpg,108.8903,299.802,32.93
drone_2,6600,0.0105,0.007,2.8238,4.8991,41.0,0.99,0,80,http://internal-drone-net/cam/drone_2/frame_00006600.jpg,107.8286,300.1486,41.0
drone_1,6700,-0.001,0.0094,2.7535,4.8479,33.17,0.9686,0,80,http://internal-drone-net/cam/drone_1/frame_00006700.jpg,108.4296,299.9963,33.17
drone_2,6700,0.0081,-0.0169,3.0767,5.0883,36.09,0.9833,0,80,http://internal-drone-net/cam/drone_2/frame_00006700.jpg,107.2257,300.2227,36.09
drone_1,6800,-0.0183,-0.0193,3.0292,4.8721,27.15,0.9681,0,80,http://internal-drone-net/cam/drone_1/frame_00006800.jpg,107.8324,300.1077,27.15
drone_2,6800,0.0084,0.0285,3.0709,4.8009,32.04,0.9865,0,80,http://internal-drone-net/cam/drone_2/frame_00006800.jpg,106.7271,300.2603,32.04
drone_1,6900,0.0299,0.0245,3.031,4.8541,31.95,0.9758,0,80,http://internal-drone-net/cam/drone_1/frame_00006900.jpg,107.3372,300.1762,31.95
drone_2,6900,0.0065,-0.0191,3.0458,5.1429,29.52,0.9729,0,80,http://internal-drone-net/cam/drone_2/frame_00006900.jpg,106.2285,300.2979,29.52
drone_1,7000,0.0331,0.0009,2.9581,5.25,28.42,0.9695,0,80,http://internal-drone-net/cam/drone_1/frame_00007000.jpg,106.8419,300.2446,28.42
drone_2,7000,0.0008,-0.0067,3.072,5.3227,35.76,0.9723,0,80,http://internal-drone-net/cam/drone_2/frame_00007000.jpg,105.7299,300.3354,35.76
drone_1,7100,-0.0005,-0.0036,3.0483,5.1627,39.03,0.983,0,80,http://internal-drone-net/cam/drone_1/frame_00007100.jpg,106.3466,300.313,39.03
drone_2,7100,-0.0306,-0.0319,3.0579,5.0558,35.94,0.9748,0,80,http://internal-drone-net/cam/drone_2/frame_00007100.jpg,105.2313,300.373,35.94
drone_1,7200,0.0136,0.0439,3.0066,4.9082,32.48,0.9869,0,80,http://internal-drone-net/cam/drone_1/frame_00007200.jpg,105.8513,300.3815,32.48
drone_2,7200,-0.0152,-0.0199,-2.9535,5.0311,30.16,0.9935,0,80,http://internal-drone-net/cam/drone_2/frame_00007200.jpg,104.6298,300.2886,30.16
drone_1,7300,-0.032,-0.0114,-3.0703,5.0501,27.19,0.9625,0,80,http://internal-drone-net/cam/drone_1/frame_00007300.jpg,105.2457,300.3345,27.19
drone_2,7300,0.004,-0.0042,-2.9607,4.9848,30.93,0.9794,0,80,http://internal-drone-net/cam/drone_2/frame_00007300.jpg,104.1385,300.1958,30.93
drone_1,7400,-0.0164,0.0276,-2.9806,5.156,26.76,0.9793,0,80,http://internal-drone-net/cam/drone_1/frame_00007400.jpg,104.7495,300.2724,26.76
drone_2,7400,-0.0238,-0.0505,-2.9765,5.1463,39.13,0.9704,0,80,http://internal-drone-net/cam/drone_2/frame_00007400.jpg,103.6472,300.103,39.13
drone_1,7500,0.0076,-0.0057,-3.085,4.9889,27.54,0.9846,0,80,http://internal-drone-net/cam/drone_1/frame_00007500.jpg,104.2534,300.2103,27.54
drone_2,7500,-0.0154,-0.0249,-2.9327,4.9485,29.81,0.9895,0,80,http://internal-drone-net/cam/drone_2/frame_00007500.jpg,103.1558,300.0103,29.81
drone_1,7600,0.0207,-0.0062,-3.0337,5.3071,37.56,0.9845,0,80,http://internal-drone-net/cam/drone_1/frame_00007600.jpg,103.7573,300.1483,37.56
drone_2,7600,0.0123,0.0254,-2.9765,4.9988,36.6,0.9647,0,80,http://internal-drone-net/cam/drone_2/frame_00007600.jpg,102.6645,299.9175,36.6
drone_1,7700,-0.0128,0.0303,-3.0148,4.9865,34.39,0.9777,0,80,http://internal-drone-net/cam/drone_1/frame_00007700.jpg,103.2611,300.0862,34.39
drone_2,7700,-0.0083,0.0233,-2.6543,5.0185,33.4,0.9967,0,80,http://internal-drone-net/cam/drone_2/frame_00007700.jpg,102.1053,299.6803,33.4
drone_1,7800,0.024,-0.0163,-2.7562,4.9318,27.55,0.9977,0,80,http://internal-drone-net/cam/drone_1/frame_00007800.jpg,102.6883,299.8841,27.55
drone_2,7800,0.0277,-0.0076,-2.6402,4.9679,36.39,0.9925,0,80,http://internal-drone-net/cam/drone_2/frame_00007800.jpg,101.6548,299.4635,36.39
drone_1,7900,-0.0453,0.0104,-2.7373,5.0319,26.46,0.9625,0,80,http://internal-drone-net/cam/drone_1/frame_00007900.jpg,102.2252,299.6957,26.46
drone_2,7900,0.025,0.0069,-2.7239,5.0062,28.98,0.9977,0,80,http://internal-drone-net/cam/drone_2/frame_00007900.jpg,101.2042,299.2468,28.98
drone_1,8000,-0.0146,0.012,-2.768,4.8819,37.05,0.9744,0,80,http://internal-drone-net/cam/drone_1/frame_00008000.jpg,101.762,299.5073,37.05
drone_2,8000,0.0115,-0.03,-2.7346,5.0704,33.09,0.9721,0,80,http://internal-drone-net/cam/drone_2/frame_00008000.jpg,100.7536,299.03,33.09
drone_1,8100,0.0132,0.0041,-2.7689,5.1555,28.31,0.9773,0,80,http://internal-drone-net/cam/drone_1/frame_00008100.jpg,101.2988,299.3189,28.31
drone_2,8100,0.0072,0.0242,-2.7372,5.1673,34.86,0.9846,0,80,http://internal-drone-net/cam/drone_2/frame_00008100.jpg,100.3031,298.8133,34.86
drone_1,8200,-0.0171,-0.0284,-2.7467,4.7328,39.37,0.9779,0,80,http://internal-drone-net/cam/drone_1/frame_00008200.jpg,100.8357,299.1306,39.37
drone_2,8200,0.0279,0.0071,-2.4192,5.1267,37.38,0.965,0,80,http://internal-drone-net/cam/drone_2/frame_00008200.jpg,99.8243,298.4394,37.38
drone_1,8300,-0.0107,-0.005,-2.5111,5.3445,37.01,0.9888,0,80,http://internal-drone-net/cam/drone_1/frame_00008300.jpg,100.3347,298.7871,37.01
drone_2,8300,0.0182,0.0082,-2.456,5.0166,38.64,0.9682,0,80,http://internal-drone-net/cam/drone_2/frame_00008300.jpg,99.4452,298.1134,38.64
drone_1,8400,0.0123,0.0603,-2.5014,4.7579,27.26,0.9933,0,80,http://internal-drone-net/cam/drone_1/frame_00008400.jpg,99.9361,298.4852,27.26
drone_2,8400,-0.0307,0.0238,-2.4272,5.0196,25.38,0.9842,0,80,http://internal-drone-net/cam/drone_2/frame_00008400.jpg,99.0661,297.7874,25.38
drone_1,8500,0.0059,0.0491,-2.5172,4.8638,26.83,0.984,0,80,http://internal-drone-net/cam/drone_1/frame_00008500.jpg,99.5374,298.1834,26.83
drone_2,8500,0.0356,-0.0064,-2.4349,4.7552,37.59,0.9886,0,80,http://internal-drone-net/cam/drone_2/frame_00008500.jpg,98.687,297.4614,37.59
drone_1,8600,-0.0255,-0.0065,-2.5097,4.7369,33.13,0.9914,0,80,http://internal-drone-net/cam/drone_1/frame_00008600.jpg,99.1388,297.8816,33.13
drone_2,8600,-0.0059,-0.0525,-2.4518,4.9579,32.82,0.9993,0,80,http://internal-drone-net/cam/drone_2/frame_00008600.jpg,98.3079,297.1354,32.82
drone_1,8700,-0.0004,0.001,-2.4995,5.184,37.69,0.9623,0,80,http://internal-drone-net/cam/drone_1/frame_00008700.jpg,98.7402,297.5797,37.69
drone_2,8700,-0.0355,-0.0218,-2.166,4.9903,27.08,0.9928,0,80,http://internal-drone-net/cam/drone_2/frame_00008700.jpg,97.9422,296.6503,27.08
drone_1,8800,0.0227,-0.0214,-2.2316,4.8999,29.99,0.978,0,80,http://internal-drone-net/cam/drone_1/frame_00008800.jpg,98.3452,297.1183,29.99
drone_2,8800,0.0219,-0.0001,-2.2094,4.8458,30.25,0.9729,0,80,http://internal-drone-net/cam/drone_2/frame_00008800.jpg,97.6604,296.2373,30.25
drone_1,8900,0.0049,-0.0171,-2.2272,4.9056,38.9,0.9735,0,80,http://internal-drone-net/cam/drone_1/frame_00008900.jpg,98.0383,296.7236,38.9
drone_2,8900,-0.002,0.0109,-2.1836,5.1342,36.17,0.9647,0,80,http://internal-drone-net/cam/drone_2/frame_00008900.jpg,97.3786,295.8243,36.17
drone_1,9000,-0.0175,-0.0188,-2.2144,4.9466,37.63,0.9892,0,80,http://internal-drone-net/cam/drone_1/frame_00009000.jpg,97.7314,296.3289,37.63
drone_2,9000,0.0481,0.0111,-2.1329,5.0583,26.37,0.978,0,80,http://internal-drone-net/cam/drone_2/frame_00009000.jpg,97.0967,295.4113,26.37
drone_1,9100,0.0449,0.0121,-2.2734,5.0829,31.13,0.9619,0,80,http://internal-drone-net/cam/drone_1/frame_00009100.jpg,97.4244,295.9342,31.13
drone_2,9100,0.0047,0.017,-2.1198,4.9556,31.18,0.969,0,80,http://internal-drone-net/cam/drone_2/frame_00009100.jpg,96.8149,294.9983,31.18
drone_1,9200,0.014,-0.0212,-2.2252,4.9117,36.03,0.9828,0,80,http://internal-drone-net/cam/drone_1/frame_00009200.jpg,97.1175,295.5394,36.03
drone_2,9200,0.0137,0.0207,-1.9217,5.0537,25.26,0.9856,0,80,http://internal-drone-net/cam/drone_2/frame_00009200.jpg,96.5873,294.4352,25.26
drone_1,9300,0.008,0.0169,-1.9896,5.013,37.33,0.9981,0,80,http://internal-drone-net/cam/drone_1/frame_00009300.jpg,96.8554,294.9915,37.33
drone_2,9300,0.0004,0.0015,-1.8977,4.697,26.01,0.9637,0,80,http://internal-drone-net/cam/drone_2/frame_00009300.jpg,96.4219,293.9633,26.01
drone_1,9400,0.0001,-0.0128,-1.9519,4.8238,38.9,0.9839,0,80,http://internal-drone-net/cam/drone_1/frame_00009400.jpg,96.6611,294.5308,38.9
drone_2,9400,-0.0119,-0.0078,-1.9627,4.7399,39.81,0.9715,0,80,http://internal-drone-net/cam/drone_2/frame_00009400.jpg,96.2566,293.4914,39.81
drone_1,9500,-0.0,0.0017,-1.9341,5.1469,37.11,0.9772,0,80,http://internal-drone-net/cam/drone_1/frame_00009500.jpg,96.4668,294.0701,37.11
drone_2,9500,-0.0352,-0.0029,-1.9171,5.2881,36.17,0.9624,0,80,http://internal-drone-net/cam/drone_2/frame_00009500.jpg,96.0913,293.0195,36.17
drone_1,9600,-0.0219,0.0236,-1.9666,5.0525,27.48,0.9743,0,80,http://internal-drone-net/cam/drone_1/frame_00009600.jpg,96.2725,293.6094,27.48
drone_2,9600,0.0256,0.0127,-1.8638,5.0231,25.45,0.9832,0,80,http://internal-drone-net/cam/drone_2/frame_00009600.jpg,95.9259,292.5477,25.45
drone_1,9700,0.0136,-0.006,-1.9502,4.9741,29.01,0.9898,0,80,http://internal-drone-net/cam/drone_1/frame_00009700.jpg,96.0782,293.1487,29.01
drone_2,9700,0.0149,0.0071,-1.6474,4.9611,35.0,0.9989,0,80,http://internal-drone-net/cam/drone_2/frame_00009700.jpg,95.8518,291.9448,35.0
drone_1,9800,-0.0117,0.0287,-1.7078,5.0573,30.67,0.9913,0,80,http://internal-drone-net/cam/drone_1/frame_00009800.jpg,95.9668,292.5515,30.67
drone_2,9800,-0.0158,-0.0102,-1.67,5.257,30.24,0.9762,0,80,http://internal-drone-net/cam/drone_2/frame_00009800.jpg,95.8142,291.4462,30.24
drone_1,9900,0.0113,-0.0094,-1.7375,5.1757,36.74,0.993,0,80,http://internal-drone-net/cam/drone_1/frame_00009900.jpg,95.8984,292.0562,36.74
drone_2,9900,0.0061,-0.0092,-1.6043,5.045,34.74,0.9669,0,80,http://internal-drone-net/cam/drone_2/frame_00009900.jpg,95.7767,290.9476,34.74
drone_1,10000,0.0192,-0.0067,-1.7218,5.032,35.29,0.9884,0,80,http://internal-drone-net/cam/drone_1/frame_00010000.jpg,95.8299,291.5609,35.29
drone_2,10000,0.0305,-0.014,-1.7199,5.0347,31.85,0.9854,0,80,http://internal-drone-net/cam/drone_2/frame_00010000.jpg,95.7391,290.449,31.85
drone_1,10100,-0.0099,-0.0388,-1.7133,4.9247,39.16,0.9895,0,80,http://internal-drone-net/cam/drone_1/frame_00010100.jpg,95.7615,291.0656,39.16
drone_2,10100,-0.0061,0.0033,-1.6041,4.8707,36.16,0.9894,0,80,http://internal-drone-net/cam/drone_2/frame_00010100.jpg,95.7015,289.9504,36.16
drone_1,10200,-0.0071,0.0196,-1.6612,4.8774,29.54,0.9884,0,80,http://internal-drone-net/cam/drone_1/frame_00010200.jpg,95.6931,290.5704,29.54
drone_2,10200,-0.0034,0.0259,-1.3871,4.9999,36.57,0.9647,0,80,http://internal-drone-net/cam/drone_2/frame_00010200.jpg,95.786,289.3489,36.57
drone_1,10300,0.0108,0.0026,-1.4865,5.1195,29.93,0.9616,0,80,http://internal-drone-net/cam/drone_1/frame_00010300.jpg,95.74,289.9647,29.93
drone_2,10300,-0.0121,0.0629,-1.3734,5.0966,27.83,0.966,0,80,http://internal-drone-net/cam/drone_2/frame_00010300.jpg,95.8787,288.8576,27.83
drone_1,10400,-0.0091,-0.009,-1.4636,5.0876,24.88,0.9931,0,80,http://internal-drone-net/cam/drone_1/frame_00010400.jpg,95.8021,289.4686,24.88
drone_2,10400,-0.0179,0.0085,-1.3853,5.1898,26.5,0.9717,0,80,http://internal-drone-net/cam/drone_2/frame_00010400.jpg,95.9715,288.3663,26.5
drone_1,10500,-0.0057,0.0147,-1.4422,5.0648,35.09,0.9921,0,80,http://internal-drone-net/cam/drone_1/frame_00010500.jpg,95.8642,288.9725,35.09
drone_2,10500,0.0076,0.0155,-1.3839,4.8836,30.39,0.9674,0,80,http://internal-drone-net/cam/drone_2/frame_00010500.jpg,96.0642,287.8749,30.39
drone_1,10600,-0.0073,-0.015,-1.4209,4.8244,35.74,0.9652,0,80,http://internal-drone-net/cam/drone_1/frame_00010600.jpg,95.9263,288.4763,35.74
drone_2,10600,0.009,-0.0087,-1.4152,5.1073,30.51,0.9788,0,80,http://internal-drone-net/cam/drone_2/frame_00010600.jpg,96.157,287.3836,30.51
drone_1,10700,0.014,0.0106,-1.4675,4.8427,38.01,0.984,0,80,http://internal-drone-net/cam/drone_1/frame_00010700.jpg,95.9884,287.9802,38.01
drone_2,10700,0.0017,0.0013,-1.1095,5.011,34.36,0.9718,0,80,http://internal-drone-net/cam/drone_2/frame_00010700.jpg,96.3942,286.8244,34.36
drone_1,10800,0.0601,-0.0222,-1.2,4.8271,26.41,0.972,0,80,http://internal-drone-net/cam/drone_1/frame_00010800.jpg,96.1905,287.4074,26.41
drone_2,10800,-0.0059,0.0166,-1.0589,5.1071,35.86,0.9922,0,80,http://internal-drone-net/cam/drone_2/frame_00010800.jpg,96.611,286.3739,35.86
drone_1,10900,0.0132,0.0154,-1.2176,5.1224,36.74,0.9947,0,80,http://internal-drone-net/cam/drone_1/frame_00010900.jpg,96.3788,286.9442,36.74
drone_2,10900,-0.0085,0.0025,-1.1034,5.1614,35.62,0.9773,0,80,http://internal-drone-net/cam/drone_2/frame_00010900.jpg,96.8278,285.9233,35.62
drone_1,11000,0.0519,0.05,-1.1432,5.0236,25.3,0.9659,0,80,http://internal-drone-net/cam/drone_1/frame_00011000.jpg,96.5672,286.4811,25.3
drone_2,11000,0.0077,0.0254,-1.1219,5.032,36.98,0.9827,0,80,http://internal-drone-net/cam/drone_2/frame_00011000.jpg,97.0445,285.4727,36.98
drone_1,11100,-0.0113,-0.0294,-1.2127,5.3142,30.26,0.9718,0,80,http://internal-drone-net/cam/drone_1/frame_00011100.jpg,96.7556,286.0179,30.26
drone_2,11100,-0.0023,-0.0048,-1.0923,5.2798,33.19,0.9909,0,80,http://internal-drone-net/cam/drone_2/frame_00011100.jpg,97.2613,285.0221,33.19
drone_1,11200,0.0066,0.0281,-1.1856,4.8291,27.89,0.9714,0,80,http://internal-drone-net/cam/drone_1/frame_00011200.jpg,96.944,285.5548,27.89
drone_2,11200,0.0008,0.0088,-0.8528,4.976,27.95,0.9745,0,80,http://internal-drone-net/cam/drone_2/frame_00011200.jpg,97.6352,284.5434,27.95
drone_1,11300,0.0004,-0.0576,-0.9276,4.9662,30.78,0.9729,0,80,http://internal-drone-net/cam/drone_1/frame_00011300.jpg,97.2874,285.0538,30.78
drone_2,11300,-0.0048,-0.036,-0.8713,5.0814,29.32,0.9701,0,80,http://internal-drone-net/cam/drone_2/frame_00011300.jpg,97.9612,284.1643,29.32
drone_1,11400,-0.0638,0.0013,-0.9391,5.0093,36.9,0.9784,0,80,http://internal-drone-net/cam/drone_1/frame_00011400.jpg,97.5893,284.6552,36.9
drone_2,11400,0.0199,-0.0247,-0.8661,4.8141,27.39,0.9718,0,80,http://internal-drone-net/cam/drone_2/frame_00011400.jpg,98.2871,283.7852,27.39
drone_1,11500,0.0074,-0.0148,-0.8868,4.9642,26.14,0.9955,0,80,http://internal-drone-net/cam/drone_1/frame_00011500.jpg,97.8911,284.2565,26.14
drone_2,11500,0.0273,0.0195,-0.8669,4.679,28.14,0.9713,0,80,http://internal-drone-net/cam/drone_2/frame_00011500.jpg,98.6131,283.4061,28.14
drone_1,11600,-0.0083,0.0307,-0.9104,4.9291,37.17,0.9713,0,80,http://internal-drone-net/cam/drone_1/frame_00011600.jpg,98.1929,283.8579,37.17
drone_2,11600,0.0192,0.0029,-0.8648,5.0288,33.52,0.998,0,80,http://internal-drone-net/cam/drone_2/frame_00011600.jpg,98.9391,283.0269,33.52
drone_1,11700,0.0013,-0.0254,-0.9486,4.9758,25.87,0.9605,0,80,http://internal-drone-net/cam/drone_1/frame_00011700.jpg,98.4948,283.4593,25.87
drone_2,11700,0.0159,-0.0182,-0.5991,5.2147,30.31,0.9679,0,80,http://internal-drone-net/cam/drone_2/frame_00011700.jpg,99.4242,282.6613,30.31
drone_1,11800,0.0052,0.0082,-0.6599,5.2005,36.56,0.9714,0,80,http://internal-drone-net/cam/drone_1/frame_00011800.jpg,98.9562,283.0643,36.56
drone_2,11800,-0.0032,-0.0161,-0.6409,5.207,26.5,0.9772,0,80,http://internal-drone-net/cam/drone_2/frame_00011800.jpg,99.8372,282.3795,26.5
drone_1,11900,-0.004,0.0044,-0.6144,4.736,24.68,0.9655,0,80,http://internal-drone-net/cam/drone_1/frame_00011900.jpg,99.3509,282.7574,24.68
drone_2,11900,0.0124,0.0116,-0.6192,5.1446,31.32,0.9744,0,80,http://internal-drone-net/cam/drone_2/frame_00011900.jpg,100.2502,282.0976,31.32
drone_1,12000,0.0419,0.0041,-0.6478,5.0456,38.65,0.9724,0,80,http://internal-drone-net/cam/drone_1/frame_00012000.jpg,99.7457,282.4504,38.65
drone_2,12000,0.0004,-0.0223,-0.603,5.2464,37.72,0.9857,0,80,http://internal-drone-net/cam/drone_2/frame_00012000.jpg,100.6632,281.8158,37.72
drone_1,12100,-0.034,0.0378,-0.6868,5.2863,38.46,0.9882,0,80,http://internal-drone-net/cam/drone_1/frame_00012100.jpg,100.1404,282.1435,38.46
drone_2,12100,0.0007,-0.0081,-0.6026,5.2162,27.75,0.9774,0,80,http://internal-drone-net/cam/drone_2/frame_00012100.jpg,101.0762,281.534,27.75
drone_1,12200,-0.0299,0.0173,-0.6471,5.0955,28.09,0.966,0,80,http://internal-drone-net/cam/drone_1/frame_00012200.jpg,100.5351,281.8366,28.09
drone_2,12200,-0.0069,-0.0055,0.154,4.989,30.06,0.9754,0,80,http://internal-drone-net/cam/drone_2/frame_00012200.jpg,101.6606,281.5544,30.06
drone_1,12300,0.037,-0.0228,-2.8425,5.0467,32.94,0.98,0,80,http://internal-drone-net/cam/drone_1/frame_00012300.jpg,100.1504,281.6036,32.94
drone_2,12300,-0.0265,-0.0001,0.1806,4.8593,27.86,0.9876,0,80,http://internal-drone-net/cam/drone_2/frame_00012300.jpg,102.1537,281.6372,27.86
drone_1,12400,-0.0266,-0.0233,-2.7833,4.896,36.91,0.9837,0,80,http://internal-drone-net/cam/drone_1/frame_00012400.jpg,99.6785,281.4385,36.91
drone_2,12400,0.0334,-0.013,0.1929,5.2212,37.58,0.9669,0,80,http://internal-drone-net/cam/drone_2/frame_00012400.jpg,102.6468,281.7199,37.58
drone_1,12500,-0.0007,0.0149,-2.773,4.9932,32.54,0.9946,0,80,http://internal-drone-net/cam/drone_1/frame_00012500.jpg,99.2065,281.2733,32.54
drone_2,12500,0.0056,0.0102,0.1612,4.9367,38.5,0.9639,0,80,http://internal-drone-net/cam/drone_2/frame_00012500.jpg,103.1399,281.8027,38.5
drone_1,12600,-0.0082,-0.0068,-2.832,5.1929,36.58,0.9679,0,80,http://internal-drone-net/cam/drone_1/frame_00012600.jpg,98.7346,281.1082,36.58
drone_2,12600,0.009,0.0295,0.1454,5.0189,37.09,0.9709,0,80,http://internal-drone-net/cam/drone_2/frame_00012600.jpg,103.633,281.8854,37.09
drone_1,12700,0.0387,0.0131,-2.8237,5.0407,28.57,0.9798,0,80,http://internal-drone-net/cam/drone_1/frame_00012700.jpg,98.2626,280.9431,28.57
drone_2,12700,-0.0259,-0.02,0.2075,4.8071,36.77,0.9613,0,80,http://internal-drone-net/cam/drone_2/frame_00012700.jpg,104.1261,281.9682,36.77
drone_1,12800,-0.0103,-0.01,-2.7994,5.1332,35.69,0.993,0,80,http://internal-drone-net/cam/drone_1/frame_00012800.jpg,97.7907,280.7779,35.69
drone_2,12800,-0.0057,-0.0307,0.1972,4.936,29.07,0.9667,0,80,http://internal-drone-net/cam/drone_2/frame_00012800.jpg,104.6192,282.0509,29.07
drone_1,12900,0.0046,-0.0227,-2.7958,4.8097,24.37,0.9722,0,80,http://internal-drone-net/cam/drone_1/frame_00012900.jpg,97.3188,280.6128,24.37
drone_2,12900,0.0105,-0.0145,0.1394,5.1341,37.13,0.98,0,80,http://internal-drone-net/cam/drone_2/frame_00012900.jpg,105.1123,282.1337,37.13
drone_1,13000,-0.008,-0.0196,-2.781,5.1098,23.66,0.9873,0,80,http://internal-drone-net/cam/drone_1/frame_00013000.jpg,96.8468,280.4476,23.66
drone_2,13000,0.0011,0.0169,0.1904,5.15,26.6,0.9655,0,80,http://internal-drone-net/cam/drone_2/frame_00013000.jpg,105.6054,282.2164,26.6
drone_1,13100,0.0032,-0.0144,-2.7757,4.7114,34.6,0.9861,0,80,http://internal-drone-net/cam/drone_1/frame_00013100.jpg,96.3749,280.2825,34.6
drone_2,13100,0.003,-0.0065,0.1745,4.9903,38.2,0.9633,0,80,http://internal-drone-net/cam/drone_2/frame_00013100.jpg,106.0985,282.2992,38.2
drone_1,13200,0.0054,-0.0096,-2.8287,4.8429,33.7,0.9784,0,80,http://internal-drone-net/cam/drone_1/frame_00013200.jpg,95.9029,280.1173,33.7
drone_2,13200,-0.008,-0.0314,0.1389,5.172,33.32,0.98,0,80,http://internal-drone-net/cam/drone_2/frame_00013200.jpg,106.5916,282.3819,33.32
drone_1,13300,-0.0102,-0.0295,-2.8255,5.0274,29.84,0.9917,0,80,http://internal-drone-net/cam/drone_1/frame_00013300.jpg,95.431,279.9522,29.84
drone_2,13300,0.0064,-0.0439,0.1856,5.3609,25.58,0.9918,0,80,http://internal-drone-net/cam/drone_2/frame_00013300.jpg,107.0848,282.4647,25.58
drone_1,13400,0.0229,0.0065,-2.759,4.7802,24.27,0.9861,0,80,http://internal-drone-net/cam/drone_1/frame_00013400.jpg,94.9591,279.7871,24.27
drone_2,13400,0.025,-0.0085,0.2233,4.8936,30.74,0.9971,0,80,http://internal-drone-net/cam/drone_2/frame_00013400.jpg,107.5779,282.5474,30.74
drone_1,13500,-0.0238,0.0058,-2.8092,4.781,34.92,0.9673,0,80,http://internal-drone-net/cam/drone_1/frame_00013500.jpg,94.4871,279.6219,34.92
drone_2,13500,-0.0241,-0.0347,0.1853,5.02,38.03,0.9796,0,80,http://internal-drone-net/cam/drone_2/frame_00013500.jpg,108.071,282.6302,38.03
drone_1,13600,-0.0141,-0.0239,-2.8329,5.2035,31.45,0.9985,0,80,http://internal-drone-net/cam/drone_1/frame_00013600.jpg,94.0152,279.4568,31.45
drone_2,13600,-0.0138,-0.0102,0.0974,5.1485,32.09,0.9743,0,80,http://internal-drone-net/cam/drone_2/frame_00013600.jpg,108.5641,282.7129,32.09
drone_1,13700,0.0007,0.021,-2.8309,5.1311,31.42,0.9625,0,80,http://internal-drone-net/cam/drone_1/frame_00013700.jpg,93.5432,279.2916,31.42
drone_2,13700,-0.0067,-0.0085,0.1725,4.7841,36.97,0.965,0,80,http://internal-drone-net/cam/drone_2/frame_00013700.jpg,109.0572,282.7957,36.97
drone_1,13800,0.0225,-0.0068,-2.7912,4.9155,23.41,0.973,0,80,http://internal-drone-net/cam/drone_1/frame_00013800.jpg,93.0713,279.1265,23.41
drone_2,13800,0.0188,-0.0035,0.1873,4.9923,35.49,0.9712,0,80,http://internal-drone-net/cam/drone_2/frame_00013800.jpg,109.5503,282.8784,35.49
drone_1,13900,-0.0039,0.0327,-2.8162,5.0189,27.68,0.9797,0,80,http://internal-drone-net/cam/drone_1/frame_00013900.jpg,92.5993,278.9614,27.68
drone_2,13900,-0.0245,0.0056,0.1396,4.879,26.82,0.9848,0,80,http://internal-drone-net/cam/drone_2/frame_00013900.jpg,110.0434,282.9612,26.82
drone_1,14000,-0.0075,-0.0282,-2.8262,4.9126,33.57,0.9932,0,80,http://internal-drone-net/cam/drone_1/frame_00014000.jpg,92.1274,278.7962,33.57
drone_2,14000,-0.0082,0.0089,0.1719,5.1288,35.37,0.9884,0,80,http://internal-drone-net/cam/drone_2/frame_00014000.jpg,110.5365,283.0439,35.37
drone_1,14100,0.0133,0.0323,-2.7926,4.7724,37.16,0.9693,0,80,http://internal-drone-net/cam/drone_1/frame_00014100.jpg,91.6555,278.6311,37.16
drone_2,14100,-0.0086,-0.0349,0.1647,4.9334,25.62,0.9778,0,80,http://internal-drone-net/cam/drone_2/frame_00014100.jpg,111.0296,283.1266,25.62
drone_1,14200,0.0149,-0.0015,-2.7598,4.7627,24.34,0.9818,0,80,http://internal-drone-net/cam/drone_1/frame_00014200.jpg,91.1835,278.4659,24.34
drone_2,14200,0.037,-0.0113,0.1218,5.0488,39.0,0.9847,0,80,http://internal-drone-net/cam/drone_2/frame_00014200.jpg,111.5227,283.2094,39.0
drone_1,14300,-0.0446,0.0059,-2.7798,4.9177,31.41,0.9808,0,80,http://internal-drone-net/cam/drone_1/frame_00014300.jpg,90.7116,278.3008,31.41
drone_2,14300,0.009,0.0165,0.1474,5.1172,33.24,0.9635,0,80,http://internal-drone-net/cam/drone_2/frame_00014300.jpg,112.0158,283.2921,33.24
drone_1,14400,0.0175,-0.0092,-2.7907,4.9561,38.07,0.9982,0,80,http://internal-drone-net/cam/drone_1/frame_00014400.jpg,90.2396,278.1356,38.07
drone_2,14400,0.0109,0.0022,0.1728,5.065,33.97,0.9858,0,80,http://internal-drone-net/cam/drone_2/frame_00014400.jpg,112.5089,283.3749,33.97
drone_1,14500,0.0063,0.0282,-2.8099,5.0253,34.95,0.9887,0,80,http://internal-drone-net/cam/drone_1/frame_00014500.jpg,89.7677,277.9705,34.95
drone_2,14500,0.0103,-0.0023,0.1429,5.3603,38.06,0.9921,0,80,http://internal-drone-net/cam/drone_2/frame_00014500.jpg,113.002,283.4576,38.06
drone_1,14600,-0.0139,-0.0007,-2.7918,4.7647,30.84,0.1972,0,-1,http://internal-drone-net/cam/drone_1/frame_00014600.jpg,89.2958,277.8054,30.84
drone_2,14600,-0.0024,-0.0212,0.1963,4.7006,32.34,0.9763,0,80,http://internal-drone-net/cam/drone_2/frame_00014600.jpg,113.4951,283.5404,32.34
drone_1,14700,0.0322,-0.0149,-2.7945,4.6005,25.67,0.1044,0,-1,http://internal-drone-net/cam/drone_1/frame_00014700.jpg,88.8238,277.6402,25.67
drone_2,14700,0.023,-0.0347,0.1972,4.914,29.15,0.9784,0,80,http://internal-drone-net/cam/drone_2/frame_00014700.jpg,113.9882,283.6231,29.15
drone_1,14800,0.0313,-0.0075,-2.7765,4.8416,26.64,0.126,0,-1,http://internal-drone-net/cam/drone_1/frame_00014800.jpg,88.3519,277.4751,26.64
drone_2,14800,-0.0097,0.0078,0.1591,5.1081,38.95,0.9703,0,80,http://internal-drone-net/cam/drone_2/frame_00014800.jpg,114.4813,283.7059,38.95
drone_1,14900,-0.03,0.0027,-2.8216,4.8159,28.83,0.0234,0,-1,http://internal-drone-net/cam/drone_1/frame_00014900.jpg,87.8799,277.3099,28.83
drone_2,14900,-0.0056,0.0129,0.1804,5.0994,33.2,0.9867,0,80,http://internal-drone-net/cam/drone_2/frame_00014900.jpg,114.9744,283.7886,33.2
drone_1,15000,0.015,0.0281,-2.7692,4.9454,27.47,0.011,0,-1,http://internal-drone-net/cam/drone_1/frame_00015000.jpg,87.408,277.1448,27.47
drone_2,15000,-0.0383,0.0156,0.1478,5.1248,24.67,0.9723,0,80,http://internal-drone-net/cam/drone_2/frame_00015000.jpg,115.4675,283.8714,24.67
drone_1,15100,-0.0252,0.0024,-2.8366,5.1684,37.48,0.1465,0,-1,http://internal-drone-net/cam/drone_1/frame_00015100.jpg,86.9361,276.9797,37.48
drone_2,15100,0.0184,0.0075,-0.3016,5.0476,25.49,0.985,0,80,http://internal-drone-net/cam/drone_2/frame_00015100.jpg,115.9895,283.7025,25.49
drone_1,15200,0.0098,-0.0071,-2.757,4.7774,36.65,0.2267,0,-1,http://internal-drone-net/cam/drone_1/frame_00015200.jpg,86.4641,276.8145,36.65
drone_2,15200,-0.0012,0.0072,-0.395,5.0026,34.98,0.9986,0,80,http://internal-drone-net/cam/drone_2/frame_00015200.jpg,116.4567,283.5244,34.98
drone_1,15300,0.0208,-0.0059,-2.7832,5.0502,33.8,0.0571,0,-1,http://internal-drone-net/cam/drone_1/frame_00015300.jpg,85.9922,276.6494,33.8
drone_2,15300,0.0023,-0.039,-0.409,4.9291,31.45,0.9869,0,80,http://internal-drone-net/cam/drone_2/frame_00015300.jpg,116.9239,283.3464,31.45
drone_1,15400,-0.0407,-0.0176,-2.8297,5.0747,29.56,0.1131,0,-1,http://internal-drone-net/cam/drone_1/frame_00015400.jpg,85.5202,276.4842,29.56
drone_2,15400,-0.0064,0.0014,-0.3785,5.0095,30.91,0.9632,0,80,http://internal-drone-net/cam/drone_2/frame_00015400.jpg,117.3912,283.1683,30.91
drone_1,15500,0.0074,0.0123,-2.8438,5.0364,32.86,0.145,0,-1,http://internal-drone-net/cam/drone_1/frame_00015500.jpg,85.0483,276.3191,32.86
drone_2,15500,-0.0036,0.0223,-0.3931,4.8843,37.07,0.9753,0,80,http://internal-drone-net/cam/drone_2/frame_00015500.jpg,117.8584,282.9903,37.07
drone_1,15600,-0.0003,0.0049,-2.7925,4.9502,31.97,0.0932,0,-1,http://internal-drone-net/cam/drone_1/frame_00015600.jpg,84.5764,276.1539,31.97
drone_2,15600,0.0339,-0.0164,-0.3843,5.0624,28.39,0.9611,0,80,http://internal-drone-net/cam/drone_2/frame_00015600.jpg,118.3256,282.8122,28.39
drone_1,15700,0.0093,0.0015,-0.3674,5.0339,32.44,0.2062,0,-1,http://internal-drone-net/cam/drone_1/frame_00015700.jpg,84.9449,275.9414,32.44
drone_2,15700,-0.0213,-0.0396,-0.3443,4.9008,26.66,0.9789,0,80,http://internal-drone-net/cam/drone_2/frame_00015700.jpg,118.7928,282.6341,26.66
drone_1,15800,-0.0132,-0.0285,-0.4144,4.8273,23.64,0.1616,0,-1,http://internal-drone-net/cam/drone_1/frame_00015800.jpg,85.4122,275.7633,23.64
drone_2,15800,0.0236,0.0156,-0.3758,4.6617,28.17,0.9956,0,80,http://internal-drone-net/cam/drone_2/frame_00015800.jpg,119.26,282.4561,28.17
drone_1,15900,-0.0273,0.0104,-0.3424,4.9742,31.22,0.1056,0,-1,http://internal-drone-net/cam/drone_1/frame_00015900.jpg,85.8794,275.5852,31.22
drone_2,15900,0.0328,0.0184,-0.3677,5.1976,36.77,0.967,0,80,http://internal-drone-net/cam/drone_2/frame_00015900.jpg,119.7273,282.278,36.77
drone_1,16000,-0.0318,-0.0047,-0.3673,4.9926,35.94,0.1248,0,-1,http://internal-drone-net/cam/drone_1/frame_00016000.jpg,86.3466,275.4072,35.94
drone_2,16000,0.0128,-0.0254,-0.3947,4.9565,26.26,0.9839,0,80,http://internal-drone-net/cam/drone_2/frame_00016000.jpg,120.1945,282.1,26.26
drone_1,16100,0.0158,0.0119,-0.3669,5.2305,35.57,0.1577,0,-1,http://internal-drone-net/cam/drone_1/frame_00016100.jpg,86.8138,275.2291,35.57
drone_2,16100,0.0058,0.0121,-0.3696,4.9532,31.35,0.972,0,80,http://internal-drone-net/cam/drone_2/frame_00016100.jpg,120.6617,281.9219,31.35
drone_1,16200,-0.0393,-0.0467,-0.3818,4.9546,26.07,0.1544,0,-1,http://internal-drone-net/cam/drone_1/frame_00016200.jpg,87.281,275.0511,26.07
drone_2,16200,0.0252,0.0082,-0.3451,4.991,26.25,0.999,0,80,http://internal-drone-net/cam/drone_2/frame_00016200.jpg,121.1289,281.7438,26.25
drone_1,16300,0.0065,-0.0014,-0.3915,4.9145,23.79,0.188,0,-1,http://internal-drone-net/cam/drone_1/frame_00016300.jpg,87.7483,274.873,23.79
drone_2,16300,-0.0094,0.0067,-0.3705,5.1382,30.96,0.9692,0,80,http://internal-drone-net/cam/drone_2/frame_00016300.jpg,121.5961,281.5658,30.96
drone_1,16400,0.0124,-0.0184,-0.3587,4.9492,24.82,0.1918,0,-1,http://internal-drone-net/cam/drone_1/frame_00016400.jpg,88.2155,274.6949,24.82
drone_2,16400,-0.0234,-0.0215,-0.3717,5.0374,30.12,0.9726,0,80,http://internal-drone-net/cam/drone_2/frame_00016400.jpg,122.0634,281.3877,30.12
drone_1,16500,0.0177,0.0239,-0.3558,4.8742,29.36,0.084,0,-1,http://internal-drone-net/cam/drone_1/frame_00016500.jpg,88.6827,274.5169,29.36
drone_2,16500,0.0121,-0.0018,-0.4249,5.0166,29.6,0.9656,0,80,http://internal-drone-net/cam/drone_2/frame_00016500.jpg,122.5306,281.2096,29.6
drone_1,16600,0.0109,-0.0052,-0.3269,5.1433,38.0,0.1227,0,-1,http://internal-drone-net/cam/drone_1/frame_00016600.jpg,89.1499,274.3388,38.0
drone_2,16600,-0.0084,-0.0117,-0.3916,4.9499,23.43,0.9897,0,80,http://internal-drone-net/cam/drone_2/frame_00016600.jpg,122.9978,281.0316,23.43
drone_1,16700,0.0543,-0.0334,-0.3838,5.2329,31.02,0.1486,0,-1,http://internal-drone-net/cam/drone_1/frame_00016700.jpg,89.6171,274.1607,31.02
drone_2,16700,0.0132,0.0212,-0.3333,4.9149,26.37,0.9721,0,80,http://internal-drone-net/cam/drone_2/frame_00016700.jpg,123.465,280.8535,26.37
drone_1,16800,0.001,0.0213,-0.3912,5.1803,28.4,0.2449,0,-1,http://internal-drone-net/cam/drone_1/frame_00016800.jpg,90.0844,273.9827,28.4
drone_2,16800,0.0288,0.0326,-0.3261,4.888,35.27,0.0187,0,-1,http://internal-drone-net/cam/drone_2/frame_00016800.jpg,123.9322,280.6755,35.27
drone_1,16900,0.0043,0.0072,-0.3287,5.2885,32.54,0.1807,0,-1,http://internal-drone-net/cam/drone_1/frame_00016900.jpg,90.5516,273.8046,32.54
drone_2,16900,-0.0115,0.0065,-0.3523,5.0091,36.94,0.1937,0,-1,http://internal-drone-net/cam/drone_2/frame_00016900.jpg,124.3994,280.4974,36.94
drone_1,17000,-0.0253,-0.0005,-0.3623,4.8596,36.67,0.2254,0,-1,http://internal-drone-net/cam/drone_1/frame_00017000.jpg,91.0188,273.6266,36.67
drone_2,17000,-0.0135,-0.0026,-0.3689,5.0505,33.1,0.1283,0,-1,http://internal-drone-net/cam/drone_2/frame_00017000.jpg,124.8667,280.3193,33.1
drone_1,17100,0.0338,-0.0029,-0.3943,5.0482,23.48,0.2219,0,-1,http://internal-drone-net/cam/drone_1/frame_00017100.jpg,91.486,273.4485,23.48
drone_2,17100,-0.0066,0.0026,-0.324,5.0231,38.1,0.122,0,-1,http://internal-drone-net/cam/drone_2/frame_00017100.jpg,125.3339,280.1413,38.1
drone_1,17200,0.0191,-0.0188,-0.4142,5.067,29.6,0.0892,0,-1,http://internal-drone-net/cam/drone_1/frame_00017200.jpg,91.9532,273.2704,29.6
drone_2,17200,-0.0147,0.0212,-0.3558,5.0703,27.07,0.0266,0,-1,http://internal-drone-net/cam/drone_2/frame_00017200.jpg,125.8011,279.9632,27.07
drone_1,17300,0.0124,0.0122,-0.3134,4.9226,34.34,0.2398,0,-1,http://internal-drone-net/cam/drone_1/frame_00017300.jpg,92.4204,273.0924,34.34
drone_2,17300,0.0108,0.0037,-0.3016,4.8564,27.35,0.1683,0,-1,http://internal-drone-net/cam/drone_2/frame_00017300.jpg,126.2683,279.7851,27.35
drone_1,17400,-0.0176,-0.0326,-0.3264,5.1489,37.02,0.0095,0,-1,http://internal-drone-net/cam/drone_1/frame_00017400.jpg,92.8877,272.9143,37.02
drone_2,17400,-0.0129,-0.0062,-0.3886,4.8324,26.14,0.1614,0,-1,http://internal-drone-net/cam/drone_2/frame_00017400.jpg,126.7355,279.6071,26.14
drone_1,17500,0.0022,0.0151,-0.4119,5.154,28.52,0.1563,0,-1,http://internal-drone-net/cam/drone_1/frame_00017500.jpg,93.3549,272.7363,28.52
drone_2,17500,-0.0264,0.0158,-0.4268,4.872,28.24,0.9957,1,9,http://internal-drone-net/cam/drone_2/frame_00017500.jpg,127.2028,279.429,28.24
drone_1,17600,0.0407,-0.0009,-0.4006,5.0496,28.14,0.1286,0,-1,http://internal-drone-net/cam/drone_1/frame_00017600.jpg,93.8221,272.5582,28.14
drone_2,17600,0.0107,0.0024,-1.0585,4.9692,24.08,0.9882,0,9,http://internal-drone-net/cam/drone_2/frame_00017600.jpg,127.4283,278.9828,24.08
drone_1,17700,-0.0045,0.0123,-0.3787,5.1674,33.51,0.2123,0,-1,http://internal-drone-net/cam/drone_1/frame_00017700.jpg,94.2893,272.3801,33.51
drone_2,17700,0.0038,0.0132,-1.0841,5.0888,36.26,0.9943,0,9,http://internal-drone-net/cam/drone_2/frame_00017700.jpg,127.6537,278.5365,36.26
drone_1,17800,-0.0279,-0.0185,-0.3337,4.9611,25.75,0.1808,0,-1,http://internal-drone-net/cam/drone_1/frame_00017800.jpg,94.7565,272.2021,25.75
drone_2,17800,0.0216,-0.0172,-1.0593,5.1658,24.97,0.9859,0,9,http://internal-drone-net/cam/drone_2/frame_00017800.jpg,127.8792,278.0902,24.97
drone_1,17900,0.0138,0.0064,-0.3753,5.0443,35.42,0.221,0,-1,http://internal-drone-net/cam/drone_1/frame_00017900.jpg,95.2238,272.024,35.42
drone_2,17900,-0.0224,-0.0273,-1.0587,4.8266,32.56,0.9921,0,9,http://internal-drone-net/cam/drone_2/frame_00017900.jpg,128.1047,277.6439,32.56
drone_1,18000,-0.0048,0.0034,-0.346,4.8069,28.8,0.2185,0,-1,http://internal-drone-net/cam/drone_1/frame_00018000.jpg,95.691,271.8459,28.8
drone_2,18000,-0.0179,-0.0033,-1.1465,5.0401,31.18,0.9851,0,9,http://internal-drone-net/cam/drone_2/frame_00018000.jpg,128.3302,277.1977,31.18
drone_1,18100,0.0136,0.0011,-0.3421,4.6389,34.05,0.0767,0,-1,http://internal-drone-net/cam/drone_1/frame_00018100.jpg,96.1582,271.6679,34.05
drone_2,18100,0.0235,-0.0322,-1.0963,5.2213,35.77,0.986,0,9,http://internal-drone-net/cam/drone_2/frame_00018100.jpg,128.5557,276.7514,35.77
drone_1,18200,0.0204,0.0318,-0.4036,4.9845,31.28,0.157,0,-1,http://internal-drone-net/cam/drone_1/frame_00018200.jpg,96.6254,271.4898,31.28
drone_2,18200,-0.0452,0.0152,-1.1364,5.1189,23.51,0.9686,0,9,http://internal-drone-net/cam/drone_2/frame_00018200.jpg,128.7812,276.3051,23.51
drone_1,18300,0.007,-0.0325,-0.3461,4.9221,25.89,0.2232,0,-1,http://internal-drone-net/cam/drone_1/frame_00018300.jpg,97.0926,271.3118,25.89
drone_2,18300,-0.011,-0.0562,-1.0708,4.851,22.54,0.9815,0,9,http://internal-drone-net/cam/drone_2/frame_00018300.jpg,129.0066,275.8589,22.54
drone_1,18400,0.0295,-0.0204,-0.3799,4.8913,29.57,0.1136,0,-1,http://internal-drone-net/cam/drone_1/frame_00018400.jpg,97.5599,271.1337,29.57
drone_2,18400,-0.0029,-0.0121,-1.1543,5.0639,31.05,0.9982,0,9,http://internal-drone-net/cam/drone_2/frame_00018400.jpg,129.2321,275.4126,31.05
drone_1,18500,-0.0098,0.0169,-0.3523,4.7922,34.19,0.1217,0,-1,http://internal-drone-net/cam/drone_1/frame_00018500.jpg,98.0271,270.9556,34.19
drone_2,18500,-0.0123,0.0627,-1.066,4.4121,34.76,0.9844,0,9,http://internal-drone-net/cam/drone_2/frame_00018500.jpg,129.4576,274.9663,34.76
drone_1,18600,-0.0007,0.0197,-0.3054,5.0583,33.22,0.0216,0,-1,http://internal-drone-net/cam/drone_1/frame_00018600.jpg,98.4943,270.7776,33.22
drone_2,18600,-0.0168,-0.006,-1.0783,4.9019,34.79,0.9848,0,9,http://internal-drone-net/cam/drone_2/frame_00018600.jpg,129.6831,274.5201,34.79
drone_1,18700,0.0008,-0.0289,-0.3866,4.748,31.36,0.2037,0,-1,http://internal-drone-net/cam/drone_1/frame_00018700.jpg,98.9615,270.5995,31.36
drone_2,18700,-0.0048,0.0104,-1.0775,5.2373,27.59,0.9771,0,9,http://internal-drone-net/cam/drone_2/frame_00018700.jpg,129.9086,274.0738,27.59
drone_1,18800,-0.03,-0.0296,-0.3692,4.9804,34.76,0.2288,0,-1,http://internal-drone-net/cam/drone_1/frame_00018800.jpg,99.4287,270.4214,34.76
drone_2,18800,-0.0056,-0.0086,-1.0518,5.1605,25.07,0.9924,0,9,http://internal-drone-net/cam/drone_2/frame_00018800.jpg,130.1341,273.6275,25.07
drone_1,18900,-0.0078,-0.0104,-0.3598,5.1375,24.31,0.081,0,-1,http://internal-drone-net/cam/drone_1/frame_00018900.jpg,99.896,270.2434,24.31
drone_2,18900,0.0077,-0.017,-1.1267,4.7344,25.07,0.9942,0,9,http://internal-drone-net/cam/drone_2/frame_00018900.jpg,130.3596,273.1813,25.07
drone_1,19000,-0.0024,-0.0019,-0.4018,5.0843,30.43,0.0588,0,-1,http://internal-drone-net/cam/drone_1/frame_00019000.jpg,100.3632,270.0653,30.43
drone_2,19000,-0.0455,-0.0081,-1.121,4.9483,23.72,0.9927,0,9,http://internal-drone-net/cam/drone_2/frame_00019000.jpg,130.585,272.735,23.72
drone_1,19100,-0.003,0.0101,-1.0071,5.0441,35.98,0.2216,0,-1,http://internal-drone-net/cam/drone_1/frame_00019100.jpg,100.7877,269.592,35.98
drone_2,19100,-0.0055,0.0004,-1.0917,5.0416,24.47,0.9805,0,9,http://internal-drone-net/cam/drone_2/frame_00019100.jpg,130.8105,272.2887,24.47
drone_1,19200,0.0288,0.0127,-0.9954,4.7731,23.14,0.1382,0,-1,http://internal-drone-net/cam/drone_1/frame_00019200.jpg,101.0639,269.1752,23.14
drone_2,19200,0.0195,-0.0092,-1.0713,5.1069,35.76,0.9613,0,9,http://internal-drone-net/cam/drone_2/frame_00019200.jpg,131.036,271.8424,35.76
drone_1,19300,-0.0044,-0.0273,-1.0442,5.1873,37.11,0.0404,0,-1,http://internal-drone-net/cam/drone_1/frame_00019300.jpg,101.3401,268.7585,37.11
drone_2,19300,0.0277,0.0013,-1.1052,5.1886,28.76,0.9623,0,9,http://internal-drone-net/cam/drone_2/frame_00019300.jpg,131.2615,271.3962,28.76
drone_1,19400,0.0071,0.0034,-0.9965,4.8285,30.08,0.2046,0,-1,http://internal-drone-net/cam/drone_1/frame_00019400.jpg,101.6163,268.3417,30.08
drone_2,19400,-0.0002,0.0098,-1.1315,4.8346,29.77,0.9745,0,9,http://internal-drone-net/cam/drone_2/frame_00019400.jpg,131.487,270.9499,29.77
drone_1,19500,-0.0156,0.0503,-1.0134,4.8894,27.75,0.0681,0,-1,http://internal-drone-net/cam/drone_1/frame_00019500.jpg,101.8925,267.9249,27.75
drone_2,19500,-0.0279,-0.0125,-1.1167,4.9801,22.04,0.9922,0,9,http://internal-drone-net/cam/drone_2/frame_00019500.jpg,131.7125,270.5036,22.04
drone_1,19600,0.014,0.0139,-1.0072,5.397,32.77,0.2325,0,-1,http://internal-drone-net/cam/drone_1/frame_00019600.jpg,102.1687,267.5081,32.77
drone_2,19600,0.0252,-0.019,-2.0244,4.9973,34.73,0.9762,0,9,http://internal-drone-net/cam/drone_2/frame_00019600.jpg,131.6535,269.7344,34.73
drone_1,19700,-0.004,-0.0161,-0.9752,4.9968,25.26,0.0606,0,-1,http://internal-drone-net/cam/drone_1/frame_00019700.jpg,102.4449,267.0913,25.26
drone_2,19700,0.0481,0.0476,-2.0034,4.9917,27.65,0.9976,0,9,http://internal-drone-net/cam/drone_2/frame_00019700.jpg,131.4326,269.2859,27.65
drone_1,19800,0.0044,0.0,-0.9561,5.039,34.96,0.0093,0,-1,http://internal-drone-net/cam/drone_1/frame_00019800.jpg,102.7211,266.6745,34.96
drone_2,19800,0.0109,0.006,-2.0643,5.0209,33.45,0.9858,0,9,http://internal-drone-net/cam/drone_2/frame_00019800.jpg,131.2116,268.8374,33.45
drone_1,19900,-0.0205,-0.0063,-0.9711,5.0525,37.24,0.1644,0,-1,http://internal-drone-net/cam/drone_1/frame_00019900.jpg,102.9973,266.2578,37.24
drone_2,19900,-0.0019,0.0023,-2.0301,4.781,27.95,0.9937,0,9,http://internal-drone-net/cam/drone_2/frame_00019900.jpg,130.9907,268.3888,27.95
drone_1,20000,0.0088,0.0305,-1.0092,5.2973,28.21,0.1218,0,-1,http://internal-drone-net/cam/drone_1/frame_00020000.jpg,103.2735,265.841,28.21
drone_2,20000,0.0323,0.0132,-2.047,4.6566,31.4,0.9784,0,9,http://internal-drone-net/cam/drone_2/frame_00020000.jpg,130.7697,267.9403,31.4
drone_1,20100,-0.0103,0.0309,-0.9463,4.9669,23.38,0.0241,0,-1,http://internal-drone-net/cam/drone_1/frame_00020100.jpg,103.5498,265.4242,23.38
drone_2,20100,0.0016,-0.0341,-1.7619,5.047,23.47,0.9875,0,9,http://internal-drone-net/cam/drone_2/frame_00020100.jpg,130.6235,267.3507,23.47
drone_1,20200,-0.0088,-0.0045,-1.003,5.1255,29.16,0.2491,0,-1,http://internal-drone-net/cam/drone_1/frame_00020200.jpg,103.826,265.0074,29.16
drone_2,20200,0.0051,-0.0217,-1.7812,5.0855,33.96,0.9806,0,9,http://internal-drone-net/cam/drone_2/frame_00020200.jpg,130.5262,266.8603,33.96
drone_1,20300,0.0312,0.0138,-0.9513,4.9993,28.43,0.1052,0,-1,http://internal-drone-net/cam/drone_1/frame_00020300.jpg,104.1022,264.5906,28.43
drone_2,20300,-0.0269,0.0047,-1.7968,4.9078,35.75,0.989,0,9,http://internal-drone-net/cam/drone_2/frame_00020300.jpg,130.4289,266.3699,35.75
drone_1,20400,0.015,-0.0155,-1.0264,5.0578,36.98,0.2323,0,-1,http://internal-drone-net/cam/drone_1/frame_00020400.jpg,104.3784,264.1738,36.98
drone_2,20400,0.0054,-0.004,-1.7779,5.0038,32.78,0.9762,0,9,http://internal-drone-net/cam/drone_2/frame_00020400.jpg,130.3315,265.8794,32.78
drone_1,20500,0.0116,0.0222,-0.9949,4.9444,37.97,0.1353,0,-1,http://internal-drone-net/cam/drone_1/frame_00020500.jpg,104.6546,263.7571,37.97
drone_2,20500,-0.0058,-0.0061,-1.7888,5.0097,30.27,0.9947,0,9,http://internal-drone-net/cam/drone_2/frame_00020500.jpg,130.2342,265.389,30.27
drone_1,20600,-0.0057,0.0053,-1.02,5.1025,30.85,0.0187,0,-1,http://internal-drone-net/cam/drone_1/frame_00020600.jpg,104.9308,263.3403,30.85
drone_2,20600,-0.0208,-0.0026,-1.4921,4.919,35.73,0.9965,0,9,http://internal-drone-net/cam/drone_2/frame_00020600.jpg,130.2456,264.7817,35.73
drone_1,20700,0.0029,-0.0091,-1.0569,4.7621,25.88,0.1428,0,-1,http://internal-drone-net/cam/drone_1/frame_00020700.jpg,105.207,262.9235,25.88
drone_2,20700,-0.0133,-0.0312,-1.4892,4.8178,34.01,0.9838,0,9,http://internal-drone-net/cam/drone_2/frame_00020700.jpg,130.2785,264.2828,34.01
drone_1,20800,0.0229,-0.0023,-0.9026,4.6169,36.55,0.2402,0,-1,http://internal-drone-net/cam/drone_1/frame_00020800.jpg,105.4832,262.5067,36.55
drone_2,20800,0.0063,0.0034,-1.5749,5.2607,24.11,0.9869,0,9,http://internal-drone-net/cam/drone_2/frame_00020800.jpg,130.3114,263.7838,24.11
drone_1,20900,-0.0101,0.0009,-1.0055,4.9763,28.77,0.1521,0,-1,http://internal-drone-net/cam/drone_1/frame_00020900.jpg,105.7594,262.0899,28.77
drone_2,20900,0.0075,-0.02,-1.4649,4.8549,32.59,0.9919,0,9,http://internal-drone-net/cam/drone_2/frame_00020900.jpg,130.3443,263.2849,32.59
drone_1,21000,0.0053,-0.0219,-0.946,5.2461,34.98,0.249,0,-1,http://internal-drone-net/cam/drone_1/frame_00021000.jpg,106.0356,261.6731,34.98
drone_2,21000,0.049,-0.0159,-1.5026,4.7936,23.07,0.9886,0,9,http://internal-drone-net/cam/drone_2/frame_00021000.jpg,130.3772,262.786,23.07
drone_1,21100,-0.0113,0.0145,-2.1103,4.9726,32.27,0.2052,0,-1,http://internal-drone-net/cam/drone_1/frame_00021100.jpg,106.0088,260.8982,32.27
drone_2,21100,0.003,-0.0145,-1.2167,5.0012,27.42,0.9896,0,9,http://internal-drone-net/cam/drone_2/frame_00021100.jpg,130.5454,262.2023,27.42
drone_1,21200,0.0005,0.017,-2.1448,5.0164,29.79,0.0859,0,-1,http://internal-drone-net/cam/drone_1/frame_00021200.jpg,105.7533,260.4685,29.79
