Elapsed_ms,Pitch,Roll,Yaw,Velocity_ms,Altitude_m,GPR_Score,Camera_Frame_URL
0,-0.0023,-0.006,0.0369,5.0343,35.62,0.1166,http://internal-drone-net/cam/frame_00000000.jpg
100,-0.0353,0.0065,0.0529,5.0687,38.62,0.0224,http://internal-drone-net/cam/frame_00000100.jpg
200,0.0206,0.0186,-0.0338,5.1223,29.12,0.2314,http://internal-drone-net/cam/frame_00000200.jpg
300,0.0195,-0.0096,-0.0155,5.0663,28.0,0.0933,http://internal-drone-net/cam/frame_00000300.jpg
400,-0.0014,0.0201,0.0406,5.2712,37.58,0.0359,http://internal-drone-net/cam/frame_00000400.jpg
500,0.0313,-0.0524,0.0769,4.9928,26.35,0.0076,http://internal-drone-net/cam/frame_00000500.jpg
600,0.0018,-0.0398,0.0044,4.9402,39.68,0.2723,http://internal-drone-net/cam/frame_00000600.jpg
700,-0.01,0.0183,-0.0259,4.8383,40.01,0.2411,http://internal-drone-net/cam/frame_00000700.jpg
800,-0.014,-0.0066,0.0049,5.1937,40.89,0.0684,http://internal-drone-net/cam/frame_00000800.jpg
900,-0.0047,-0.0283,0.0131,5.001,27.15,0.036,http://internal-drone-net/cam/frame_00000900.jpg
1000,0.0377,0.0035,-0.0081,5.0808,33.83,0.1091,http://internal-drone-net/cam/frame_00001000.jpg
1100,0.0493,-0.0038,-0.0013,5.012,40.33,0.0435,http://internal-drone-net/cam/frame_00001100.jpg
1200,0.0158,-0.0182,0.0571,5.1504,29.17,0.1103,http://internal-drone-net/cam/frame_00001200.jpg
1300,-0.0113,0.002,0.1095,4.8019,35.1,0.2033,http://internal-drone-net/cam/frame_00001300.jpg
1400,-0.0212,0.0095,-0.0775,5.0137,27.07,0.2073,http://internal-drone-net/cam/frame_00001400.jpg
1500,-0.0246,0.0045,-0.0161,5.1627,40.12,0.1589,http://internal-drone-net/cam/frame_00001500.jpg
1600,-0.0247,-0.0264,0.013,5.1564,29.5,0.2178,http://internal-drone-net/cam/frame_00001600.jpg
1700,0.0046,0.0059,0.0173,4.864,36.52,0.0015,http://internal-drone-net/cam/frame_00001700.jpg
1800,-0.0238,0.0131,0.0933,5.0948,30.78,0.2137,http://internal-drone-net/cam/frame_00001800.jpg
1900,0.0083,0.0164,-0.041,5.1927,37.14,0.0281,http://internal-drone-net/cam/frame_00001900.jpg
2000,-0.0015,0.0068,-0.0445,4.8368,28.59,0.2676,http://internal-drone-net/cam/frame_00002000.jpg
2100,0.0544,0.0125,0.0727,4.9471,31.97,0.0842,http://internal-drone-net/cam/frame_00002100.jpg
2200,-0.0045,0.0143,-0.0535,5.0965,33.26,0.0046,http://internal-drone-net/cam/frame_00002200.jpg
2300,-0.0303,-0.0089,-0.0036,4.8306,30.12,0.0508,http://internal-drone-net/cam/frame_00002300.jpg
2400,-0.0177,0.0031,0.0087,5.0771,35.5,0.1845,http://internal-drone-net/cam/frame_00002400.jpg
2500,0.0112,0.0217,-0.0571,5.0716,42.16,0.1078,http://internal-drone-net/cam/frame_00002500.jpg
2600,0.0103,0.0771,0.0258,5.1028,30.3,0.2395,http://internal-drone-net/cam/frame_00002600.jpg
2700,0.0152,-0.0155,0.0326,4.9369,28.72,0.1735,http://internal-drone-net/cam/frame_00002700.jpg
2800,0.0137,-0.0323,0.1157,4.6265,36.34,0.0092,http://internal-drone-net/cam/frame_00002800.jpg
2900,-0.0216,-0.0143,0.0544,5.0129,34.51,0.1869,http://internal-drone-net/cam/frame_00002900.jpg
3000,0.0429,0.0127,0.0023,4.8697,39.6,0.2178,http://internal-drone-net/cam/frame_00003000.jpg
3100,0.017,-0.0159,0.0093,4.8676,30.01,0.0076,http://internal-drone-net/cam/frame_00003100.jpg
3200,-0.024,-0.0067,0.0252,5.1732,31.98,0.0469,http://internal-drone-net/cam/frame_00003200.jpg
3300,0.0184,0.0424,0.0202,4.7478,38.44,0.1259,http://internal-drone-net/cam/frame_00003300.jpg
3400,0.0089,0.0155,0.0633,4.8585,38.14,0.1423,http://internal-drone-net/cam/frame_00003400.jpg
3500,-0.025,0.0326,-0.0512,4.9495,40.12,0.1905,http://internal-drone-net/cam/frame_00003500.jpg
3600,0.0233,0.0002,0.0721,4.7128,42.8,0.1976,http://internal-drone-net/cam/frame_00003600.jpg
3700,-0.0077,0.0023,-0.03,5.014,34.65,0.1165,http://internal-drone-net/cam/frame_00003700.jpg
3800,-0.003,0.0118,0.1067,4.6096,31.13,0.2884,http://internal-drone-net/cam/frame_00003800.jpg
3900,-0.0099,-0.0118,-0.0311,4.9584,43.56,0.0354,http://internal-drone-net/cam/frame_00003900.jpg
4000,0.0163,0.0126,0.045,5.0615,31.45,0.0846,http://internal-drone-net/cam/frame_00004000.jpg
4100,0.0023,0.0256,0.0305,4.9958,30.42,0.1022,http://internal-drone-net/cam/frame_00004100.jpg
4200,0.0165,0.0163,-0.0109,5.2198,37.73,0.0309,http://internal-drone-net/cam/frame_00004200.jpg
4300,-0.0062,0.0065,0.0011,5.1364,36.96,0.2852,http://internal-drone-net/cam/frame_00004300.jpg
4400,-0.0201,-0.0243,-0.0409,5.4185,37.21,0.2018,http://internal-drone-net/cam/frame_00004400.jpg
4500,-0.0179,0.0015,0.0314,4.9976,37.18,0.1325,http://internal-drone-net/cam/frame_00004500.jpg
4600,0.0083,-0.0113,-0.0413,4.9357,36.02,0.1855,http://internal-drone-net/cam/frame_00004600.jpg
4700,0.0046,-0.029,-0.0253,4.9058,37.5,0.2438,http://internal-drone-net/cam/frame_00004700.jpg
4800,0.0062,0.0295,-0.0359,4.9573,37.19,0.1273,http://internal-drone-net/cam/frame_00004800.jpg
4900,-0.0058,0.0065,-0.0501,4.9963,34.03,0.2238,http://internal-drone-net/cam/frame_00004900.jpg
5000,0.0138,-0.008,-0.0054,5.0803,43.43,0.0671,http://internal-drone-net/cam/frame_00005000.jpg
5100,-0.0155,0.0005,0.0006,5.0195,41.52,0.1888,http://internal-drone-net/cam/frame_00005100.jpg
5200,0.0174,0.0037,0.1077,4.8465,39.33,0.0136,http://internal-drone-net/cam/frame_00005200.jpg
5300,-0.012,-0.0425,-0.0404,4.8321,30.68,0.1751,http://internal-drone-net/cam/frame_00005300.jpg
5400,0.019,-0.0115,0.0171,5.3752,35.01,0.2054,http://internal-drone-net/cam/frame_00005400.jpg
5500,-0.0094,-0.0343,0.0916,5.2359,40.09,0.291,http://internal-drone-net/cam/frame_00005500.jpg
5600,-0.0319,-0.012,-0.0057,5.2476,39.7,0.0169,http://internal-drone-net/cam/frame_00005600.jpg
5700,0.0125,-0.0214,0.0023,4.91,37.98,0.2862,http://internal-drone-net/cam/frame_00005700.jpg
5800,-0.0307,0.0256,0.0356,4.7751,38.76,0.0341,http://internal-drone-net/cam/frame_00005800.jpg
5900,0.0014,0.0412,0.0058,5.2359,38.41,0.263,http://internal-drone-net/cam/frame_00005900.jpg
6000,-0.0193,0.0137,0.0323,5.2737,32.79,0.0409,http://internal-drone-net/cam/frame_00006000.jpg
6100,-0.0408,-0.0054,-0.0879,4.7633,35.43,0.1542,http://internal-drone-net/cam/frame_00006100.jpg
6200,-0.0341,-0.0011,0.0814,4.724,40.89,0.1377,http://internal-drone-net/cam/frame_00006200.jpg
6300,0.0134,0.0073,-0.0045,4.7391,34.56,0.0546,http://internal-drone-net/cam/frame_00006300.jpg
6400,-0.0197,0.0101,-0.0031,5.191,42.96,0.0577,http://internal-drone-net/cam/frame_00006400.jpg
6500,-0.0207,-0.0111,-0.0396,4.9786,44.83,0.151,http://internal-drone-net/cam/frame_00006500.jpg
6600,-0.0022,-0.0044,-0.035,5.0428,41.59,0.2419,http://internal-drone-net/cam/frame_00006600.jpg
6700,-0.046,-0.0303,-0.0288,4.945,45.85,0.1388,http://internal-drone-net/cam/frame_00006700.jpg
6800,0.0616,0.0224,0.0288,5.0623,45.61,0.0322,http://internal-drone-net/cam/frame_00006800.jpg
6900,-0.0284,-0.0129,0.0102,4.8487,42.96,0.0359,http://internal-drone-net/cam/frame_00006900.jpg
7000,-0.0002,0.0296,0.0844,5.1763,42.72,0.0261,http://internal-drone-net/cam/frame_00007000.jpg
7100,-0.0038,-0.0175,0.0269,4.7926,45.68,0.1938,http://internal-drone-net/cam/frame_00007100.jpg
7200,-0.013,-0.0097,-0.0699,5.1126,36.87,0.056,http://internal-drone-net/cam/frame_00007200.jpg
7300,-0.001,-0.0048,-0.0415,5.0541,43.51,0.2908,http://internal-drone-net/cam/frame_00007300.jpg
7400,0.01,-0.0196,-0.0288,5.1511,31.56,0.2788,http://internal-drone-net/cam/frame_00007400.jpg
7500,0.0114,-0.0153,0.0272,4.8675,32.15,0.1523,http://internal-drone-net/cam/frame_00007500.jpg
7600,0.0128,-0.0332,0.013,4.8191,40.44,0.0463,http://internal-drone-net/cam/frame_00007600.jpg
7700,-0.0077,0.0201,0.0024,4.8279,41.71,0.0764,http://internal-drone-net/cam/frame_00007700.jpg
7800,-0.0494,-0.0159,0.0265,5.2883,44.47,0.1047,http://internal-drone-net/cam/frame_00007800.jpg
7900,-0.0031,0.0234,-0.0302,5.0173,37.58,0.0419,http://internal-drone-net/cam/frame_00007900.jpg
8000,0.0079,-0.0084,-0.0244,4.9135,38.97,0.1996,http://internal-drone-net/cam/frame_00008000.jpg
8100,-0.0082,-0.0408,-0.0163,5.2402,43.77,0.1388,http://internal-drone-net/cam/frame_00008100.jpg
8200,0.0065,-0.0044,0.0009,5.3353,35.76,0.1152,http://internal-drone-net/cam/frame_00008200.jpg
8300,0.0229,0.0068,0.0385,4.7043,32.62,0.186,http://internal-drone-net/cam/frame_00008300.jpg
8400,-0.0092,-0.017,0.0091,5.0496,33.57,0.0745,http://internal-drone-net/cam/frame_00008400.jpg
8500,0.0067,0.0208,-0.0239,5.0958,41.88,0.0332,http://internal-drone-net/cam/frame_00008500.jpg
8600,-0.0089,0.0075,-0.0135,4.8042,34.96,0.0688,http://internal-drone-net/cam/frame_00008600.jpg
8700,0.0375,-0.0155,0.0678,5.0827,40.95,0.0545,http://internal-drone-net/cam/frame_00008700.jpg
8800,0.0131,-0.0011,-0.0889,5.2992,35.15,0.046,http://internal-drone-net/cam/frame_00008800.jpg
8900,0.0145,0.0096,0.0065,5.0219,39.72,0.2122,http://internal-drone-net/cam/frame_00008900.jpg
9000,0.0319,-0.0102,0.0941,5.2691,37.69,0.2803,http://internal-drone-net/cam/frame_00009000.jpg
9100,0.0219,-0.0338,-0.0063,5.0111,36.84,0.0164,http://internal-drone-net/cam/frame_00009100.jpg
9200,0.0165,0.0015,-0.0506,4.669,40.22,0.1039,http://internal-drone-net/cam/frame_00009200.jpg
9300,-0.0301,-0.0049,0.0835,4.9481,46.55,0.1495,http://internal-drone-net/cam/frame_00009300.jpg
9400,0.037,0.0225,-0.0115,5.1392,47.72,0.0039,http://internal-drone-net/cam/frame_00009400.jpg
9500,0.0012,0.0003,-0.0553,5.5147,38.5,0.063,http://internal-drone-net/cam/frame_00009500.jpg
9600,-0.0007,-0.0109,-0.0287,4.8906,36.04,0.1695,http://internal-drone-net/cam/frame_00009600.jpg
9700,0.0218,0.0249,0.0752,4.4698,39.62,0.0466,http://internal-drone-net/cam/frame_00009700.jpg
9800,-0.0222,0.035,-0.0704,4.8444,44.93,0.0076,http://internal-drone-net/cam/frame_00009800.jpg
9900,-0.0226,-0.0105,0.0636,5.1443,38.21,0.1958,http://internal-drone-net/cam/frame_00009900.jpg
10000,0.0142,0.0089,-0.012,4.925,35.03,0.2491,http://internal-drone-net/cam/frame_00010000.jpg
10100,-0.0062,0.0065,0.0308,5.1186,45.94,0.1264,http://internal-drone-net/cam/frame_00010100.jpg
10200,-0.0141,-0.0282,-0.0261,5.2098,35.27,0.1771,http://internal-drone-net/cam/frame_00010200.jpg
10300,0.0339,0.0042,0.0877,4.5836,40.5,0.2291,http://internal-drone-net/cam/frame_00010300.jpg
10400,0.0023,0.003,-0.0019,5.2207,38.33,0.1276,http://internal-drone-net/cam/frame_00010400.jpg
10500,0.0149,0.0034,-0.0855,4.7304,47.7,0.2953,http://internal-drone-net/cam/frame_00010500.jpg
10600,0.0039,-0.0196,-0.027,4.8443,35.87,0.0822,http://internal-drone-net/cam/frame_00010600.jpg
10700,0.0197,0.0333,0.0236,5.0512,44.67,0.0526,http://internal-drone-net/cam/frame_00010700.jpg
10800,-0.0125,0.0005,-0.092,4.7441,41.32,0.0499,http://internal-drone-net/cam/frame_00010800.jpg
10900,-0.0281,-0.0185,-0.0378,4.8777,43.67,0.2157,http://internal-drone-net/cam/frame_00010900.jpg
11000,0.0099,0.0037,-0.0475,5.5265,43.22,0.2198,http://internal-drone-net/cam/frame_00011000.jpg
11100,-0.0019,0.023,0.0061,5.512,37.86,0.032,http://internal-drone-net/cam/frame_00011100.jpg
11200,-0.0125,0.0362,-0.0017,5.3542,41.27,0.0739,http://internal-drone-net/cam/frame_00011200.jpg
11300,-0.0314,-0.0145,0.0486,5.1244,42.03,0.2752,http://internal-drone-net/cam/frame_00011300.jpg
11400,0.0036,-0.0267,-0.0037,5.1241,40.06,0.2619,http://internal-drone-net/cam/frame_00011400.jpg
11500,0.0092,-0.0014,0.054,5.1668,46.76,0.0664,http://internal-drone-net/cam/frame_00011500.jpg
11600,0.0054,-0.0255,0.0215,5.0415,43.43,0.2746,http://internal-drone-net/cam/frame_00011600.jpg
11700,0.0136,0.0006,0.0527,4.9921,35.62,0.0957,http://internal-drone-net/cam/frame_00011700.jpg
11800,-0.0087,-0.0062,0.0048,4.9075,38.2,0.0231,http://internal-drone-net/cam/frame_00011800.jpg
11900,-0.0088,0.0289,-0.0447,4.9626,42.53,0.0956,http://internal-drone-net/cam/frame_00011900.jpg
12000,0.0016,0.0213,0.0134,5.1779,38.63,0.2817,http://internal-drone-net/cam/frame_00012000.jpg
12100,-0.0073,-0.0089,0.0705,5.4598,35.34,0.1264,http://internal-drone-net/cam/frame_00012100.jpg
12200,-0.0269,-0.0184,-0.021,4.9436,39.02,0.0889,http://internal-drone-net/cam/frame_00012200.jpg
12300,-0.02,0.0197,0.0117,5.3101,43.91,0.2834,http://internal-drone-net/cam/frame_00012300.jpg
12400,0.0033,0.0098,-0.0561,5.0765,41.03,0.1823,http://internal-drone-net/cam/frame_00012400.jpg
12500,-0.0111,-0.0127,-0.0265,4.8754,40.13,0.0174,http://internal-drone-net/cam/frame_00012500.jpg
12600,-0.0166,0.0094,0.071,4.8859,38.62,0.2447,http://internal-drone-net/cam/frame_00012600.jpg
12700,0.0359,-0.0123,-0.0758,5.3095,41.22,0.2666,http://internal-drone-net/cam/frame_00012700.jpg
12800,0.0132,0.0402,0.0143,5.0669,36.67,0.0261,http://internal-drone-net/cam/frame_00012800.jpg
12900,0.0359,-0.0104,-0.0365,4.9934,49.22,0.2554,http://internal-drone-net/cam/frame_00012900.jpg
13000,-0.0098,0.0209,0.1263,4.8938,47.1,0.2034,http://internal-drone-net/cam/frame_00013000.jpg
13100,0.0222,0.0164,-0.018,5.1181,47.62,0.2092,http://internal-drone-net/cam/frame_00013100.jpg
13200,-0.0033,0.0029,0.0691,5.1297,47.3,0.1005,http://internal-drone-net/cam/frame_00013200.jpg
13300,0.0256,0.0038,-0.0197,5.0057,36.63,0.1895,http://internal-drone-net/cam/frame_00013300.jpg
13400,-0.0062,0.0044,0.0323,5.4327,37.04,0.2283,http://internal-drone-net/cam/frame_00013400.jpg
13500,0.0037,-0.0089,0.014,5.1216,44.22,0.0903,http://internal-drone-net/cam/frame_00013500.jpg
13600,0.0239,-0.0305,0.0066,4.86,35.55,0.0137,http://internal-drone-net/cam/frame_00013600.jpg
13700,-0.0013,-0.0111,0.0189,5.3131,46.92,0.0821,http://internal-drone-net/cam/frame_00013700.jpg
13800,0.0088,-0.01,-0.0724,4.5602,37.16,0.2081,http://internal-drone-net/cam/frame_00013800.jpg
13900,0.0174,0.013,-0.0282,4.7439,39.07,0.1259,http://internal-drone-net/cam/frame_00013900.jpg
14000,-0.0009,0.0049,-0.0763,4.8616,41.22,0.2682,http://internal-drone-net/cam/frame_00014000.jpg
14100,0.0223,0.0069,0.0722,4.9836,42.2,0.2313,http://internal-drone-net/cam/frame_00014100.jpg
14200,0.0039,0.0142,0.0321,5.2658,41.06,0.239,http://internal-drone-net/cam/frame_00014200.jpg
14300,-0.0286,0.0026,0.09,4.992,45.86,0.0807,http://internal-drone-net/cam/frame_00014300.jpg
14400,-0.009,-0.0485,-0.0223,4.6221,47.03,0.18,http://internal-drone-net/cam/frame_00014400.jpg
14500,-0.001,-0.0001,0.0213,4.8066,40.75,0.1854,http://internal-drone-net/cam/frame_00014500.jpg
14600,0.0042,-0.0408,-0.011,5.0054,36.38,0.0264,http://internal-drone-net/cam/frame_00014600.jpg
14700,0.0128,-0.0114,-0.0141,5.3595,46.29,0.0502,http://internal-drone-net/cam/frame_00014700.jpg
14800,0.0012,-0.0129,0.07,5.1849,46.75,0.2127,http://internal-drone-net/cam/frame_00014800.jpg
14900,-0.0107,0.0263,0.0318,5.2099,45.28,0.1357,http://internal-drone-net/cam/frame_00014900.jpg
15000,-0.013,-0.0097,0.0868,5.0396,42.18,0.2615,http://internal-drone-net/cam/frame_00015000.jpg
15100,0.0428,0.0346,-0.0287,4.9951,40.26,0.0685,http://internal-drone-net/cam/frame_00015100.jpg
15200,0.0123,-0.0205,0.0019,5.024,38.89,0.0217,http://internal-drone-net/cam/frame_00015200.jpg
15300,0.0129,-0.0097,-0.0834,5.0798,40.27,0.1038,http://internal-drone-net/cam/frame_00015300.jpg
15400,0.0337,-0.0092,0.0112,5.2094,35.58,0.146,http://internal-drone-net/cam/frame_00015400.jpg
15500,-0.0315,0.0295,0.0442,5.1305,36.77,0.2199,http://internal-drone-net/cam/frame_00015500.jpg
15600,-0.011,-0.0134,0.0247,5.0521,48.93,0.2914,http://internal-drone-net/cam/frame_00015600.jpg
15700,-0.0074,0.0154,0.0586,5.1087,45.07,0.1078,http://internal-drone-net/cam/frame_00015700.jpg
15800,-0.0259,0.0232,-0.0181,4.7761,40.52,0.232,http://internal-drone-net/cam/frame_00015800.jpg
15900,-0.0257,0.0199,0.0239,5.0154,48.43,0.1293,http://internal-drone-net/cam/frame_00015900.jpg
16000,-0.007,-0.007,0.075,5.17,35.74,0.011,http://internal-drone-net/cam/frame_00016000.jpg
16100,0.0086,0.0206,0.1038,5.0764,43.08,0.0618,http://internal-drone-net/cam/frame_00016100.jpg
16200,0.0146,0.001,-0.0036,4.9926,41.69,0.0118,http://internal-drone-net/cam/frame_00016200.jpg
16300,-0.04,0.0183,-0.004,5.0157,46.24,0.1364,http://internal-drone-net/cam/frame_00016300.jpg
16400,0.0222,-0.0208,0.1044,4.9721,44.12,0.0606,http://internal-drone-net/cam/frame_00016400.jpg
16500,0.0043,0.0174,0.0957,4.9619,41.94,0.2834,http://internal-drone-net/cam/frame_00016500.jpg
16600,0.004,0.021,0.1202,4.9885,47.68,0.0091,http://internal-drone-net/cam/frame_00016600.jpg
16700,-0.0229,0.0327,0.0594,5.1277,49.23,0.032,http://internal-drone-net/cam/frame_00016700.jpg
16800,0.0064,0.0084,-0.0032,5.0658,49.32,0.1701,http://internal-drone-net/cam/frame_00016800.jpg
16900,-0.0246,0.0119,0.0482,5.2379,43.24,0.2393,http://internal-drone-net/cam/frame_00016900.jpg
17000,-0.0035,0.0003,-0.0075,5.0251,40.44,0.0974,http://internal-drone-net/cam/frame_00017000.jpg
17100,-0.0431,-0.0128,-0.0423,4.8017,46.94,0.0682,http://internal-drone-net/cam/frame_00017100.jpg
17200,-0.0138,0.045,0.0821,5.202,42.46,0.1139,http://internal-drone-net/cam/frame_00017200.jpg
17300,-0.0329,0.0205,0.1145,4.7221,50.1,0.1824,http://internal-drone-net/cam/frame_00017300.jpg
17400,0.0152,0.0056,0.0297,5.1707,35.43,0.073,http://internal-drone-net/cam/frame_00017400.jpg
17500,-0.002,-0.0198,-0.014,4.6614,44.11,0.2409,http://internal-drone-net/cam/frame_00017500.jpg
17600,-0.0198,0.0188,0.0459,4.6859,47.69,0.1241,http://internal-drone-net/cam/frame_00017600.jpg
17700,-0.0267,-0.012,-0.0484,5.0211,43.28,0.1702,http://internal-drone-net/cam/frame_00017700.jpg
17800,0.0045,0.0273,-0.001,5.1105,47.83,0.013,http://internal-drone-net/cam/frame_00017800.jpg
17900,0.0008,-0.014,0.0272,5.0098,40.04,0.1833,http://internal-drone-net/cam/frame_00017900.jpg
18000,-0.0144,0.0179,-0.0622,4.8614,44.96,0.2468,http://internal-drone-net/cam/frame_00018000.jpg
18100,0.0429,-0.0238,0.0139,4.8329,49.89,0.2211,http://internal-drone-net/cam/frame_00018100.jpg
18200,0.0009,-0.0029,-0.0093,4.974,44.8,0.1821,http://internal-drone-net/cam/frame_00018200.jpg
18300,0.0516,-0.0161,-0.0685,4.9823,37.76,0.1285,http://internal-drone-net/cam/frame_00018300.jpg
18400,-0.0076,-0.0041,0.0284,5.3257,34.85,0.0257,http://internal-drone-net/cam/frame_00018400.jpg
18500,-0.0245,0.0007,-0.0507,4.8701,36.33,0.0203,http://internal-drone-net/cam/frame_00018500.jpg
18600,0.0066,0.0167,0.0117,4.6888,39.1,0.1599,http://internal-drone-net/cam/frame_00018600.jpg
18700,0.0084,-0.0141,-0.0605,5.3345,35.91,0.1687,http://internal-drone-net/cam/frame_00018700.jpg
18800,0.0034,-0.0283,0.0269,4.8159,46.56,0.029,http://internal-drone-net/cam/frame_00018800.jpg
18900,0.0122,-0.0218,0.0618,5.2183,45.03,0.2977,http://internal-drone-net/cam/frame_00018900.jpg
19000,0.0464,0.0079,0.0607,5.0283,41.25,0.0267,http://internal-drone-net/cam/frame_00019000.jpg
19100,0.0191,-0.0157,-0.0076,5.1416,36.88,0.0263,http://internal-drone-net/cam/frame_00019100.jpg
19200,-0.0221,-0.0431,-0.0918,5.1016,43.92,0.1802,http://internal-drone-net/cam/frame_00019200.jpg
19300,-0.002,0.0184,0.0419,5.0164,45.07,0.2604,http://internal-drone-net/cam/frame_00019300.jpg
19400,-0.0035,-0.0151,-0.0334,5.1984,47.87,0.0521,http://internal-drone-net/cam/frame_00019400.jpg
19500,0.0095,-0.0005,-0.0005,5.2172,35.88,0.1819,http://internal-drone-net/cam/frame_00019500.jpg
19600,-0.0213,-0.0061,0.0005,4.7376,44.91,0.1103,http://internal-drone-net/cam/frame_00019600.jpg
19700,0.0097,0.0013,0.0265,4.9859,38.28,0.1319,http://internal-drone-net/cam/frame_00019700.jpg
19800,0.0306,0.0244,-0.0605,5.12,41.68,0.0456,http://internal-drone-net/cam/frame_00019800.jpg
19900,-0.0067,-0.0123,0.0745,5.0297,42.22,0.2076,http://internal-drone-net/cam/frame_00019900.jpg
20000,0.0087,0.0238,0.008,5.0006,44.83,0.0919,http://internal-drone-net/cam/frame_00020000.jpg
20100,-0.0045,-0.0234,0.0467,4.7266,38.28,0.2483,http://internal-drone-net/cam/frame_00020100.jpg
20200,-0.0109,0.0078,-0.0288,4.4818,39.26,0.1606,http://internal-drone-net/cam/frame_00020200.jpg
20300,-0.0195,0.0239,0.029,5.0239,41.39,0.0294,http://internal-drone-net/cam/frame_00020300.jpg
20400,-0.0035,0.0342,-0.0222,4.823,46.42,0.1128,http://internal-drone-net/cam/frame_00020400.jpg
20500,0.0208,-0.0121,-0.0105,4.8662,49.92,0.0764,http://internal-drone-net/cam/frame_00020500.jpg
20600,0.0148,0.006,0.1079,4.8789,37.31,0.191,http://internal-drone-net/cam/frame_00020600.jpg
20700,-0.0136,0.0403,-0.0377,5.092,47.55,0.0125,http://internal-drone-net/cam/frame_00020700.jpg
20800,-0.0269,-0.0194,-0.0183,5.0369,47.92,0.1049,http://internal-drone-net/cam/frame_00020800.jpg
20900,0.0144,0.0199,0.0268,5.2371,35.82,0.1874,http://internal-drone-net/cam/frame_00020900.jpg
21000,0.0266,0.0111,-0.0161,4.9498,33.77,0.1932,http://internal-drone-net/cam/frame_00021000.jpg
21100,0.0054,0.0306,0.0464,5.0114,40.95,0.2435,http://internal-drone-net/cam/frame_00021100.jpg
21200,-0.0209,-0.0393,-0.0182,4.8322,38.59,0.1318,http://internal-drone-net/cam/frame_00021200.jpg
21300,0.0163,0.0172,-0.0138,5.0615,41.48,0.2584,http://internal-drone-net/cam/frame_00021300.jpg
21400,-0.005,0.0321,-0.0084,5.0565,47.9,0.2526,http://internal-drone-net/cam/frame_00021400.jpg
21500,-0.0259,0.008,0.0587,5.0362,35.91,0.2453,http://internal-drone-net/cam/frame_00021500.jpg
21600,0.0062,0.034,0.0619,5.0043,34.22,0.1771,http://internal-drone-net/cam/frame_00021600.jpg
21700,0.0076,0.0258,-0.088,5.1507,34.57,0.048,http://internal-drone-net/cam/frame_00021700.jpg
21800,-0.0116,0.0118,-0.0105,4.8299,41.01,0.1665,http://internal-drone-net/cam/frame_00021800.jpg
21900,-0.0122,-0.0027,0.0222,5.2393,46.1,0.2283,http://internal-drone-net/cam/frame_00021900.jpg
22000,-0.0024,0.0084,-0.0392,5.1297,41.81,0.0981,http://internal-drone-net/cam/frame_00022000.jpg
22100,-0.008,0.0045,-0.0186,5.3454,36.11,0.1175,http://internal-drone-net/cam/frame_00022100.jpg
22200,-0.011,0.0512,-0.0763,5.2525,37.3,0.1927,http://internal-drone-net/cam/frame_00022200.jpg
22300,0.0242,0.0205,0.1003,5.4123,37.73,0.0809,http://internal-drone-net/cam/frame_00022300.jpg
22400,-0.0034,-0.0091,-0.0409,4.9993,46.5,0.2355,http://internal-drone-net/cam/frame_00022400.jpg
22500,-0.0039,-0.0143,0.0739,4.7717,33.16,0.0266,http://internal-drone-net/cam/frame_00022500.jpg
22600,-0.0205,0.0371,0.0757,5.1262,42.56,0.1909,http://internal-drone-net/cam/frame_00022600.jpg
22700,0.0218,0.0377,-0.048,4.9256,47.78,0.0553,http://internal-drone-net/cam/frame_00022700.jpg
22800,0.0065,-0.003,0.007,4.6463,46.85,0.0778,http://internal-drone-net/cam/frame_00022800.jpg
22900,-0.0574,-0.0006,-0.0266,4.766,33.81,0.1311,http://internal-drone-net/cam/frame_00022900.jpg
23000,-0.02,0.006,-0.0301,5.0938,32.79,0.2254,http://internal-drone-net/cam/frame_00023000.jpg
23100,-0.0165,-0.0045,-0.0102,4.8244,41.63,0.0816,http://internal-drone-net/cam/frame_00023100.jpg
23200,-0.0004,-0.0149,0.0746,4.9458,32.91,0.0101,http://internal-drone-net/cam/frame_00023200.jpg
23300,-0.0056,0.0013,0.0442,5.1474,42.64,0.281,http://internal-drone-net/cam/frame_00023300.jpg
23400,0.0159,-0.0251,-0.0781,4.8942,33.51,0.0594,http://internal-drone-net/cam/frame_00023400.jpg
23500,0.0233,-0.0147,-0.0018,4.677,33.79,0.2552,http://internal-drone-net/cam/frame_00023500.jpg
23600,0.0086,0.0139,-0.0508,5.0123,43.14,0.0203,http://internal-drone-net/cam/frame_00023600.jpg
23700,-0.0584,0.0087,0.0043,4.7856,43.33,0.1387,http://internal-drone-net/cam/frame_00023700.jpg
23800,0.0004,-0.0146,0.031,5.4115,39.51,0.2419,http://internal-drone-net/cam/frame_00023800.jpg
23900,-0.0191,0.0025,-0.04,4.9035,39.87,0.0615,http://internal-drone-net/cam/frame_00023900.jpg
24000,0.0177,-0.0016,-0.0146,4.6874,36.88,0.1616,http://internal-drone-net/cam/frame_00024000.jpg
24100,0.023,0.0023,-0.0376,4.9147,40.23,0.0861,http://internal-drone-net/cam/frame_00024100.jpg
24200,-0.0089,0.0256,0.0937,5.216,34.72,0.2745,http://internal-drone-net/cam/frame_00024200.jpg
24300,0.0206,-0.0067,-0.0423,4.8713,33.6,0.0553,http://internal-drone-net/cam/frame_00024300.jpg
24400,0.0413,-0.0214,-0.0478,5.0847,37.95,0.025,http://internal-drone-net/cam/frame_00024400.jpg
24500,0.009,-0.0212,0.0706,4.9841,40.66,0.2646,http://internal-drone-net/cam/frame_00024500.jpg
24600,0.0116,0.0065,0.0594,5.5179,38.04,0.0238,http://internal-drone-net/cam/frame_00024600.jpg
24700,0.0264,-0.0201,-0.0148,5.0337,42.31,0.1414,http://internal-drone-net/cam/frame_00024700.jpg
24800,0.0259,-0.0005,-0.1061,4.8784,37.63,0.1006,http://internal-drone-net/cam/frame_00024800.jpg
24900,-0.0073,-0.0078,0.0273,4.9522,36.76,0.1351,http://internal-drone-net/cam/frame_00024900.jpg
25000,0.02,-0.0086,0.0609,5.3043,40.09,0.1414,http://internal-drone-net/cam/frame_00025000.jpg
25100,0.0238,-0.0093,0.0162,4.7642,46.3,0.0525,http://internal-drone-net/cam/frame_00025100.jpg
25200,0.0174,-0.0269,0.0293,4.905,42.22,0.2082,http://internal-drone-net/cam/frame_00025200.jpg
25300,0.0036,0.007,-0.0339,5.1028,40.77,0.2365,http://internal-drone-net/cam/frame_00025300.jpg
25400,0.0135,0.038,0.0205,4.9517,34.04,0.0333,http://internal-drone-net/cam/frame_00025400.jpg
25500,0.0169,-0.0107,-0.006,4.5655,36.93,0.222,http://internal-drone-net/cam/frame_00025500.jpg
25600,0.0103,-0.0052,0.0355,4.9129,42.96,0.2262,http://internal-drone-net/cam/frame_00025600.jpg
25700,0.0162,0.0073,0.0543,4.8928,34.4,0.029,http://internal-drone-net/cam/frame_00025700.jpg
25800,0.016,-0.0323,-0.001,4.9394,45.39,0.0892,http://internal-drone-net/cam/frame_00025800.jpg
25900,-0.0034,0.0014,0.0855,4.9791,34.08,0.0191,http://internal-drone-net/cam/frame_00025900.jpg
26000,0.0195,0.01,-0.0464,5.0477,33.15,0.2637,http://internal-drone-net/cam/frame_00026000.jpg
26100,-0.0366,0.0102,0.0339,4.8692,36.31,0.2678,http://internal-drone-net/cam/frame_00026100.jpg
26200,0.0328,0.0148,0.0806,5.263,44.8,0.0712,http://internal-drone-net/cam/frame_00026200.jpg
26300,-0.0035,0.0025,-0.0422,5.4342,41.19,0.2231,http://internal-drone-net/cam/frame_00026300.jpg
26400,-0.0148,-0.0264,-0.0311,5.0389,41.86,0.1417,http://internal-drone-net/cam/frame_00026400.jpg
26500,-0.0017,-0.0301,-0.0346,4.7187,30.8,0.0621,http://internal-drone-net/cam/frame_00026500.jpg
26600,0.0064,0.0268,-0.0155,4.8496,32.78,0.1538,http://internal-drone-net/cam/frame_00026600.jpg
26700,-0.015,-0.0064,0.0336,5.0426,35.42,0.1522,http://internal-drone-net/cam/frame_00026700.jpg
26800,-0.0142,-0.0303,0.0951,4.9879,37.36,0.1265,http://internal-drone-net/cam/frame_00026800.jpg
26900,0.0179,-0.0097,0.0254,4.6838,30.89,0.0773,http://internal-drone-net/cam/frame_00026900.jpg
27000,-0.0054,-0.0178,0.0806,5.1794,36.91,0.1369,http://internal-drone-net/cam/frame_00027000.jpg
27100,0.0015,-0.0045,-0.0494,4.9737,36.07,0.2825,http://internal-drone-net/cam/frame_00027100.jpg
27200,-0.002,0.0004,-0.0545,5.2822,33.08,0.1908,http://internal-drone-net/cam/frame_00027200.jpg
27300,0.0072,-0.0229,0.0144,4.8775,31.85,0.0035,http://internal-drone-net/cam/frame_00027300.jpg
27400,-0.011,0.0019,-0.0064,4.6236,30.9,0.0369,http://internal-drone-net/cam/frame_00027400.jpg
27500,0.0085,-0.0129,-0.0433,5.1939,39.95,0.2019,http://internal-drone-net/cam/frame_00027500.jpg
27600,0.0278,-0.005,0.05,4.8659,38.32,0.2467,http://internal-drone-net/cam/frame_00027600.jpg
27700,-0.035,0.0261,0.0405,5.1587,42.98,0.2117,http://internal-drone-net/cam/frame_00027700.jpg
27800,-0.0221,-0.0043,-0.0545,4.9178,38.39,0.267,http://internal-drone-net/cam/frame_00027800.jpg
27900,-0.0042,-0.0337,0.0698,4.8876,36.61,0.2031,http://internal-drone-net/cam/frame_00027900.jpg
28000,-0.0005,0.0056,-0.0617,4.8815,33.81,0.2065,http://internal-drone-net/cam/frame_00028000.jpg
28100,0.0001,-0.0087,-0.0007,5.1093,40.26,0.0093,http://internal-drone-net/cam/frame_00028100.jpg
28200,0.0112,-0.0059,-0.0129,5.3197,36.85,0.0348,http://internal-drone-net/cam/frame_00028200.jpg
28300,0.0074,-0.0021,-0.0167,5.2346,28.98,0.1157,http://internal-drone-net/cam/frame_00028300.jpg
28400,0.0347,0.0446,-0.0597,5.0286,33.07,0.2286,http://internal-drone-net/cam/frame_00028400.jpg
28500,-0.0124,-0.0034,-0.0271,4.8424,41.72,0.0811,http://internal-drone-net/cam/frame_00028500.jpg
28600,-0.0215,0.0048,-0.099,5.1496,36.35,0.1332,http://internal-drone-net/cam/frame_00028600.jpg
28700,0.0392,-0.0246,-0.0143,5.2202,35.98,0.1185,http://internal-drone-net/cam/frame_00028700.jpg
28800,0.0051,0.0094,0.1322,4.6994,28.48,0.16,http://internal-drone-net/cam/frame_00028800.jpg
28900,-0.0069,0.0124,-0.0196,5.0538,30.88,0.2832,http://internal-drone-net/cam/frame_00028900.jpg
29000,0.0225,-0.001,0.0189,4.9941,41.15,0.1766,http://internal-drone-net/cam/frame_00029000.jpg
29100,0.0275,-0.0427,-0.0327,4.8809,32.81,0.1732,http://internal-drone-net/cam/frame_00029100.jpg
29200,0.0104,0.0129,-0.0027,5.0571,39.42,0.1721,http://internal-drone-net/cam/frame_00029200.jpg
29300,0.0227,0.0119,-0.0076,4.961,26.39,0.188,http://internal-drone-net/cam/frame_00029300.jpg
29400,0.0225,0.019,-0.0009,4.9223,36.39,0.2078,http://internal-drone-net/cam/frame_00029400.jpg
29500,0.0172,0.0191,-0.069,4.8747,34.36,0.0884,http://internal-drone-net/cam/frame_00029500.jpg
29600,-0.0128,0.0086,0.0363,5.1032,40.99,0.226,http://internal-drone-net/cam/frame_00029600.jpg
29700,0.0214,-0.0005,0.0354,5.0703,37.96,0.0233,http://internal-drone-net/cam/frame_00029700.jpg
29800,-0.0158,-0.0062,-0.0338,4.9711,29.1,0.2425,http://internal-drone-net/cam/frame_00029800.jpg
29900,-0.0163,0.0132,0.0107,5.0002,30.44,0.0151,http://internal-drone-net/cam/frame_00029900.jpg
30000,-0.0154,-0.0188,-0.0804,4.8475,39.3,0.241,http://internal-drone-net/cam/frame_00030000.jpg
30100,-0.0401,0.0127,-0.0097,4.9471,40.02,0.2937,http://internal-drone-net/cam/frame_00030100.jpg
30200,-0.0604,0.0037,0.068,4.7382,27.18,0.1758,http://internal-drone-net/cam/frame_00030200.jpg
30300,-0.0195,0.0095,-0.0246,5.1614,34.59,0.1658,http://internal-drone-net/cam/frame_00030300.jpg
30400,-0.0005,-0.0354,0.0196,4.8982,26.33,0.0853,http://internal-drone-net/cam/frame_00030400.jpg
30500,0.0224,0.0,0.0076,4.8355,27.22,0.0141,http://internal-drone-net/cam/frame_00030500.jpg
30600,0.0165,-0.0173,-0.0164,5.031,40.21,0.0949,http://internal-drone-net/cam/frame_00030600.jpg
30700,0.0175,0.0053,-0.041,4.9048,40.87,0.1301,http://internal-drone-net/cam/frame_00030700.jpg
30800,0.0053,-0.0117,0.0195,4.9794,36.5,0.1481,http://internal-drone-net/cam/frame_00030800.jpg
30900,0.0247,0.0018,0.0463,5.1931,35.48,0.0894,http://internal-drone-net/cam/frame_00030900.jpg
31000,-0.0028,-0.009,0.0308,5.2408,37.63,0.287,http://internal-drone-net/cam/frame_00031000.jpg
31100,-0.0244,-0.0102,-0.1148,4.8899,27.78,0.2303,http://internal-drone-net/cam/frame_00031100.jpg
31200,0.0124,-0.0228,0.0163,5.0601,26.06,0.1417,http://internal-drone-net/cam/frame_00031200.jpg
31300,0.0164,0.0075,-0.0536,4.6892,34.63,0.2216,http://internal-drone-net/cam/frame_00031300.jpg
31400,-0.018,0.0128,-0.0595,5.3285,38.89,0.2671,http://internal-drone-net/cam/frame_00031400.jpg
31500,-0.02,0.0148,-0.0081,5.0082,33.39,0.0044,http://internal-drone-net/cam/frame_00031500.jpg
31600,-0.0512,-0.0038,-0.0114,4.8011,39.44,0.1593,http://internal-drone-net/cam/frame_00031600.jpg
31700,0.0109,-0.0236,-0.0131,5.0045,37.73,0.2322,http://internal-drone-net/cam/frame_00031700.jpg
31800,0.0135,0.0118,0.0219,5.0039,35.14,0.0361,http://internal-drone-net/cam/frame_00031800.jpg
31900,-0.0294,0.0033,0.0775,4.7522,29.74,0.2541,http://internal-drone-net/cam/frame_00031900.jpg
32000,-0.0045,0.0298,0.0087,5.0488,36.97,0.1194,http://internal-drone-net/cam/frame_00032000.jpg
32100,0.0332,0.0004,-0.0822,4.9648,36.26,0.2888,http://internal-drone-net/cam/frame_00032100.jpg
32200,-0.0075,-0.0064,-0.063,4.8767,38.67,0.1867,http://internal-drone-net/cam/frame_00032200.jpg
32300,0.0228,0.0316,0.0123,5.0996,36.9,0.078,http://internal-drone-net/cam/frame_00032300.jpg
32400,0.0197,-0.0015,-0.0117,5.0933,26.23,0.2123,http://internal-drone-net/cam/frame_00032400.jpg
32500,0.0037,0.0405,0.1045,4.6785,33.44,0.0229,http://internal-drone-net/cam/frame_00032500.jpg
32600,-0.0442,0.0307,-0.009,5.2746,32.05,0.0132,http://internal-drone-net/cam/frame_00032600.jpg
32700,0.0118,-0.032,-0.0133,4.9142,36.4,0.1311,http://internal-drone-net/cam/frame_00032700.jpg
32800,0.0085,0.0004,0.0095,4.8676,25.8,0.2272,http://internal-drone-net/cam/frame_00032800.jpg
32900,-0.0259,-0.0191,-0.0095,5.144,36.66,0.1695,http://internal-drone-net/cam/frame_00032900.jpg
33000,-0.025,0.0121,-0.0157,4.9999,38.06,0.0965,http://internal-drone-net/cam/frame_00033000.jpg
33100,-0.0013,0.042,0.0133,4.9127,27.12,0.0356,http://internal-drone-net/cam/frame_00033100.jpg
33200,-0.013,0.0264,0.0372,4.9638,26.0,0.1177,http://internal-drone-net/cam/frame_00033200.jpg
33300,0.0158,-0.0394,0.0504,4.8631,28.66,0.197,http://internal-drone-net/cam/frame_00033300.jpg
33400,-0.0081,0.0137,0.0007,4.8092,32.95,0.2851,http://internal-drone-net/cam/frame_00033400.jpg
33500,0.0021,-0.018,-0.0782,5.3234,32.47,0.2682,http://internal-drone-net/cam/frame_00033500.jpg
33600,-0.0026,0.0302,-0.0095,5.1843,28.63,0.1493,http://internal-drone-net/cam/frame_00033600.jpg
33700,-0.0084,-0.0521,0.0182,5.1774,30.69,0.2433,http://internal-drone-net/cam/frame_00033700.jpg
33800,0.0136,0.0239,0.0618,4.7858,34.5,0.0455,http://internal-drone-net/cam/frame_00033800.jpg
33900,-0.0016,0.007,0.016,4.8992,26.33,0.0,http://internal-drone-net/cam/frame_00033900.jpg
34000,-0.0217,-0.0217,-0.0338,5.0068,31.9,0.9865,http://internal-drone-net/cam/frame_00034000.jpg
34100,0.0227,-0.0212,0.041,4.9497,27.49,0.2138,http://internal-drone-net/cam/frame_00034100.jpg
34200,0.0292,-0.0344,-0.023,4.7729,31.54,0.1983,http://internal-drone-net/cam/frame_00034200.jpg
34300,-0.0114,0.0114,0.0192,5.0961,30.24,0.0127,http://internal-drone-net/cam/frame_00034300.jpg
34400,0.0194,0.0161,-0.0794,5.1586,30.47,0.0308,http://internal-drone-net/cam/frame_00034400.jpg
34500,0.0199,0.0163,0.0079,5.2164,36.14,0.2084,http://internal-drone-net/cam/frame_00034500.jpg
34600,-0.0107,0.0108,-0.0211,5.1353,27.31,0.1036,http://internal-drone-net/cam/frame_00034600.jpg
34700,0.0018,-0.0478,0.0469,5.1267,36.18,0.0489,http://internal-drone-net/cam/frame_00034700.jpg
34800,-0.0012,0.0091,-0.0356,5.2889,33.18,0.0705,http://internal-drone-net/cam/frame_00034800.jpg
34900,0.0008,-0.0048,0.066,5.3638,34.14,0.24,http://internal-drone-net/cam/frame_00034900.jpg
35000,-0.0223,-0.0202,-0.0498,4.944,27.02,0.2614,http://internal-drone-net/cam/frame_00035000.jpg
35100,0.0387,0.0014,0.0386,5.2223,22.49,0.0863,http://internal-drone-net/cam/frame_00035100.jpg
35200,0.0244,-0.0174,0.0625,4.697,28.38,0.1214,http://internal-drone-net/cam/frame_00035200.jpg
35300,-0.0131,-0.0086,0.0466,5.3627,27.29,0.1122,http://internal-drone-net/cam/frame_00035300.jpg
35400,-0.0237,0.0104,0.0694,5.2293,33.39,0.1255,http://internal-drone-net/cam/frame_00035400.jpg
35500,-0.0334,-0.0266,-0.0264,4.8986,33.43,0.2912,http://internal-drone-net/cam/frame_00035500.jpg
35600,-0.0129,0.034,0.0757,4.8773,25.96,0.104,http://internal-drone-net/cam/frame_00035600.jpg
35700,-0.0026,0.019,-0.0331,4.6505,24.34,0.2906,http://internal-drone-net/cam/frame_00035700.jpg
35800,0.0039,-0.0163,-0.0042,5.0371,27.94,0.1871,http://internal-drone-net/cam/frame_00035800.jpg
35900,0.0185,0.0131,0.0507,4.685,33.4,0.2598,http://internal-drone-net/cam/frame_00035900.jpg
36000,0.0333,0.0145,-0.0107,5.0554,32.38,0.204,http://internal-drone-net/cam/frame_00036000.jpg
36100,-0.0325,-0.0022,-0.0128,4.9346,35.23,0.2519,http://internal-drone-net/cam/frame_00036100.jpg
36200,0.0063,0.0038,-0.0432,4.9718,27.13,0.1302,http://internal-drone-net/cam/frame_00036200.jpg
36300,-0.0017,0.0314,-0.0246,5.0032,28.8,0.0726,http://internal-drone-net/cam/frame_00036300.jpg
36400,-0.014,-0.0174,0.018,5.1136,33.59,0.0743,http://internal-drone-net/cam/frame_00036400.jpg
36500,0.0199,0.0082,-0.015,5.323,32.11,0.2469,http://internal-drone-net/cam/frame_00036500.jpg
36600,0.0283,0.0136,-0.07,5.0414,30.34,0.2214,http://internal-drone-net/cam/frame_00036600.jpg
36700,0.0153,-0.0344,-0.031,5.0308,28.87,0.1105,http://internal-drone-net/cam/frame_00036700.jpg
36800,0.0428,-0.015,0.0553,5.1282,23.73,0.0745,http://internal-drone-net/cam/frame_00036800.jpg
36900,0.0037,-0.0096,-0.1018,5.1077,23.67,0.0066,http://internal-drone-net/cam/frame_00036900.jpg
37000,0.0159,-0.0003,-0.0345,5.0008,25.85,0.0316,http://internal-drone-net/cam/frame_00037000.jpg
37100,-0.0098,0.0109,-0.0509,4.8602,24.69,0.2645,http://internal-drone-net/cam/frame_00037100.jpg
37200,-0.0202,-0.0223,-0.0347,5.066,31.59,0.075,http://internal-drone-net/cam/frame_00037200.jpg
37300,-0.0093,-0.0134,0.0266,5.2098,32.58,0.2741,http://internal-drone-net/cam/frame_00037300.jpg
37400,0.0142,0.0002,-0.0573,4.7273,21.3,0.2629,http://internal-drone-net/cam/frame_00037400.jpg
37500,0.0003,0.0084,-0.107,4.7199,29.95,0.2514,http://internal-drone-net/cam/frame_00037500.jpg
37600,-0.0221,0.0072,-0.0195,5.3182,31.12,0.2021,http://internal-drone-net/cam/frame_00037600.jpg
37700,0.0349,-0.0056,0.0372,5.0224,23.61,0.1063,http://internal-drone-net/cam/frame_00037700.jpg
37800,-0.0284,0.012,0.0053,4.6946,26.33,0.0173,http://internal-drone-net/cam/frame_00037800.jpg
37900,0.0089,-0.0418,-0.0349,5.0225,29.86,0.1287,http://internal-drone-net/cam/frame_00037900.jpg
38000,0.0,-0.0259,0.0543,5.211,24.66,0.1236,http://internal-drone-net/cam/frame_00038000.jpg
38100,-0.0183,-0.0067,0.111,5.0504,19.3,0.0429,http://internal-drone-net/cam/frame_00038100.jpg
38200,-0.0026,0.0035,-0.0236,4.7431,21.42,0.1523,http://internal-drone-net/cam/frame_00038200.jpg
38300,0.0192,-0.0219,-0.0382,5.4057,32.51,0.003,http://internal-drone-net/cam/frame_00038300.jpg
38400,0.0072,0.0068,0.0622,5.0264,30.73,0.1455,http://internal-drone-net/cam/frame_00038400.jpg
38500,-0.006,-0.0018,0.0715,5.0667,33.4,0.0227,http://internal-drone-net/cam/frame_00038500.jpg
38600,0.0099,0.0009,-0.0138,5.1881,31.22,0.02,http://internal-drone-net/cam/frame_00038600.jpg
38700,0.0269,-0.0216,-0.0332,4.941,29.23,0.1052,http://internal-drone-net/cam/frame_00038700.jpg
38800,0.0352,-0.0057,-0.0093,4.8765,31.84,0.197,http://internal-drone-net/cam/frame_00038800.jpg
38900,0.0303,0.0279,0.1055,5.0537,32.9,0.2255,http://internal-drone-net/cam/frame_00038900.jpg
39000,0.0215,0.0305,-0.0572,5.0115,19.88,0.2227,http://internal-drone-net/cam/frame_00039000.jpg
39100,0.0044,0.0108,-0.0059,5.0712,30.03,0.1962,http://internal-drone-net/cam/frame_00039100.jpg
39200,-0.0018,-0.0243,0.0932,5.222,31.93,0.2149,http://internal-drone-net/cam/frame_00039200.jpg
39300,-0.0137,0.017,-0.0504,4.8484,25.62,0.1521,http://internal-drone-net/cam/frame_00039300.jpg
39400,0.0231,-0.0084,0.0111,4.9041,32.74,0.1979,http://internal-drone-net/cam/frame_00039400.jpg
39500,-0.0011,-0.0284,-0.0549,5.0197,20.16,0.0809,http://internal-drone-net/cam/frame_00039500.jpg
39600,-0.0305,0.0124,-0.0507,5.1402,30.48,0.1986,http://internal-drone-net/cam/frame_00039600.jpg
39700,0.0287,-0.0092,0.038,4.8101,21.51,0.0779,http://internal-drone-net/cam/frame_00039700.jpg
39800,-0.0108,0.0013,-0.0166,5.0983,28.94,0.2001,http://internal-drone-net/cam/frame_00039800.jpg
39900,0.0129,-0.0141,-0.0146,4.9062,24.98,0.0285,http://internal-drone-net/cam/frame_00039900.jpg
40000,0.0074,0.0063,0.0581,4.8377,26.96,0.2993,http://internal-drone-net/cam/frame_00040000.jpg
40100,-0.012,-0.0362,-0.0252,5.243,23.9,0.1963,http://internal-drone-net/cam/frame_00040100.jpg
40200,0.0214,0.0404,0.0667,5.1259,25.29,0.1874,http://internal-drone-net/cam/frame_00040200.jpg
40300,-0.0098,-0.0271,0.0877,5.3538,22.75,0.1791,http://internal-drone-net/cam/frame_00040300.jpg
40400,-0.0294,0.0028,-0.0103,5.1121,21.81,0.2987,http://internal-drone-net/cam/frame_00040400.jpg
40500,0.0319,-0.0013,0.0275,5.1384,32.39,0.2024,http://internal-drone-net/cam/frame_00040500.jpg
40600,0.0,-0.0255,0.0279,4.9679,22.36,0.2073,http://internal-drone-net/cam/frame_00040600.jpg
40700,-0.0204,-0.0241,0.0434,5.0808,21.71,0.2115,http://internal-drone-net/cam/frame_00040700.jpg
40800,0.0105,0.0266,0.0476,5.0947,24.99,0.2099,http://internal-drone-net/cam/frame_00040800.jpg
40900,-0.0063,-0.0331,0.1531,4.7794,30.27,0.2764,http://internal-drone-net/cam/frame_00040900.jpg
41000,-0.0161,-0.003,-0.087,5.2226,24.91,0.1821,http://internal-drone-net/cam/frame_00041000.jpg
41100,-0.0068,-0.0033,0.04,5.0858,30.71,0.2212,http://internal-drone-net/cam/frame_00041100.jpg
41200,0.0238,-0.0024,0.0144,5.015,20.73,0.0187,http://internal-drone-net/cam/frame_00041200.jpg
41300,-0.0036,-0.0132,0.0154,4.8667,21.99,0.1407,http://internal-drone-net/cam/frame_00041300.jpg
41400,-0.0123,0.021,-0.0851,4.9074,17.35,0.0898,http://internal-drone-net/cam/frame_00041400.jpg
41500,-0.0228,-0.0076,-0.029,5.2739,25.06,0.1028,http://internal-drone-net/cam/frame_00041500.jpg
41600,0.027,0.0056,-0.0959,4.97,19.14,0.0411,http://internal-drone-net/cam/frame_00041600.jpg
41700,0.0156,-0.0169,0.0009,4.7147,27.69,0.1379,http://internal-drone-net/cam/frame_00041700.jpg
41800,0.0108,0.0328,-0.0593,4.5356,23.65,0.2002,http://internal-drone-net/cam/frame_00041800.jpg
41900,0.0027,-0.0237,0.0403,5.2448,24.51,0.1468,http://internal-drone-net/cam/frame_00041900.jpg
42000,-0.0085,0.0207,-0.1662,4.7062,26.54,0.2579,http://internal-drone-net/cam/frame_00042000.jpg
42100,0.0069,0.0052,-0.0982,4.9017,23.05,0.1738,http://internal-drone-net/cam/frame_00042100.jpg
42200,-0.0419,0.0173,-0.0617,5.1321,16.57,0.1985,http://internal-drone-net/cam/frame_00042200.jpg
42300,-0.0143,0.0088,0.0145,4.8183,26.12,0.0857,http://internal-drone-net/cam/frame_00042300.jpg
42400,-0.007,-0.0199,0.0034,5.089,20.96,0.2393,http://internal-drone-net/cam/frame_00042400.jpg
42500,0.0094,0.0104,-0.0422,5.0803,29.32,0.0662,http://internal-drone-net/cam/frame_00042500.jpg
42600,0.0059,0.0075,-0.018,5.1078,31.13,0.1882,http://internal-drone-net/cam/frame_00042600.jpg
42700,-0.0052,0.0166,-0.0592,4.8571,19.08,0.012,http://internal-drone-net/cam/frame_00042700.jpg
42800,-0.0014,0.0178,-0.0328,4.8534,31.38,0.1399,http://internal-drone-net/cam/frame_00042800.jpg
42900,-0.028,0.0234,-0.0607,5.3878,31.23,0.0512,http://internal-drone-net/cam/frame_00042900.jpg
43000,0.0482,0.0044,-0.03,4.778,25.14,0.2732,http://internal-drone-net/cam/frame_00043000.jpg
43100,-0.0102,0.024,0.0001,5.0113,26.06,0.0482,http://internal-drone-net/cam/frame_00043100.jpg
43200,0.005,-0.0179,-0.0777,4.9397,22.54,0.0843,http://internal-drone-net/cam/frame_00043200.jpg
43300,-0.0123,0.0065,-0.0244,5.2858,31.1,0.0711,http://internal-drone-net/cam/frame_00043300.jpg
43400,-0.0128,-0.0033,0.0371,5.0228,25.8,0.0057,http://internal-drone-net/cam/frame_00043400.jpg
43500,-0.0241,0.0101,0.0069,4.8595,26.06,0.0796,http://internal-drone-net/cam/frame_00043500.jpg
43600,0.0066,0.0107,-0.0586,5.2294,21.35,0.0832,http://internal-drone-net/cam/frame_00043600.jpg
43700,-0.0256,-0.0022,0.0519,4.7823,27.47,0.0783,http://internal-drone-net/cam/frame_00043700.jpg
43800,-0.0219,0.006,-0.0234,4.7691,16.72,0.2904,http://internal-drone-net/cam/frame_00043800.jpg
43900,-0.0074,0.0165,0.0005,5.4151,17.09,0.1734,http://internal-drone-net/cam/frame_00043900.jpg
44000,0.0127,-0.0223,0.0283,5.1398,29.38,0.1234,http://internal-drone-net/cam/frame_00044000.jpg
44100,0.0185,-0.01,0.0297,4.7791,22.02,0.1026,http://internal-drone-net/cam/frame_00044100.jpg
44200,-0.0013,-0.037,0.0115,5.3425,28.74,0.09,http://internal-drone-net/cam/frame_00044200.jpg
44300,-0.0202,-0.0055,-0.0119,5.0246,29.83,0.2199,http://internal-drone-net/cam/frame_00044300.jpg
44400,-0.0043,0.0172,0.0955,5.162,18.14,0.098,http://internal-drone-net/cam/frame_00044400.jpg
44500,-0.0182,-0.0206,0.0253,5.0354,21.55,0.2942,http://internal-drone-net/cam/frame_00044500.jpg
44600,0.0085,0.0416,0.0074,4.8641,21.18,0.031,http://internal-drone-net/cam/frame_00044600.jpg
44700,0.009,-0.0086,0.0291,4.9868,26.99,0.0158,http://internal-drone-net/cam/frame_00044700.jpg
44800,-0.0283,0.0131,-0.076,4.9532,29.11,0.1733,http://internal-drone-net/cam/frame_00044800.jpg
44900,-0.0066,0.0231,0.0217,4.5671,27.72,0.0985,http://internal-drone-net/cam/frame_00044900.jpg
45000,0.0247,-0.0013,-0.0034,4.8297,22.08,0.0664,http://internal-drone-net/cam/frame_00045000.jpg
45100,-0.0447,0.0082,0.0231,4.8416,23.31,0.0356,http://internal-drone-net/cam/frame_00045100.jpg
45200,-0.0005,-0.0103,0.0168,5.3914,16.61,0.1223,http://internal-drone-net/cam/frame_00045200.jpg
45300,0.01,-0.0027,0.0027,5.3447,22.51,0.0349,http://internal-drone-net/cam/frame_00045300.jpg
45400,-0.0043,-0.0126,0.009,5.0975,18.17,0.1652,http://internal-drone-net/cam/frame_00045400.jpg
45500,0.0276,-0.0093,0.0214,4.6877,19.09,0.1065,http://internal-drone-net/cam/frame_00045500.jpg
45600,-0.0033,-0.0136,0.0579,5.2573,17.83,0.0545,http://internal-drone-net/cam/frame_00045600.jpg
45700,0.0204,0.0003,-0.0146,5.0306,27.94,0.2194,http://internal-drone-net/cam/frame_00045700.jpg
45800,0.0274,0.0286,0.0177,4.9488,19.41,0.121,http://internal-drone-net/cam/frame_00045800.jpg
45900,-0.0101,-0.006,0.0175,5.3253,22.42,0.2499,http://internal-drone-net/cam/frame_00045900.jpg
46000,0.0146,-0.0043,-0.0116,5.2329,27.33,0.0754,http://internal-drone-net/cam/frame_00046000.jpg
46100,-0.0353,-0.0045,-0.1332,5.1346,27.33,0.0816,http://internal-drone-net/cam/frame_00046100.jpg
46200,0.0262,-0.0236,0.0754,4.8616,26.42,0.2416,http://internal-drone-net/cam/frame_00046200.jpg
46300,-0.0067,0.0256,-0.0237,5.0147,24.4,0.0361,http://internal-drone-net/cam/frame_00046300.jpg
46400,-0.0143,-0.0206,0.0222,4.7696,15.93,0.1639,http://internal-drone-net/cam/frame_00046400.jpg
46500,-0.0095,-0.0168,-0.0169,5.2992,21.34,0.005,http://internal-drone-net/cam/frame_00046500.jpg
46600,-0.0075,-0.0101,-0.0566,5.0689,21.01,0.2605,http://internal-drone-net/cam/frame_00046600.jpg
46700,-0.0104,-0.0072,-0.0053,5.0167,16.18,0.175,http://internal-drone-net/cam/frame_00046700.jpg
46800,0.0019,-0.0101,-0.0338,5.2009,17.45,0.1193,http://internal-drone-net/cam/frame_00046800.jpg
46900,0.0187,-0.0048,0.017,4.7961,16.69,0.165,http://internal-drone-net/cam/frame_00046900.jpg
47000,-0.0118,0.0131,0.0605,4.9462,16.73,0.0678,http://internal-drone-net/cam/frame_00047000.jpg
47100,-0.0155,-0.0002,-0.0305,5.1355,21.56,0.1326,http://internal-drone-net/cam/frame_00047100.jpg
47200,0.005,-0.0237,0.0337,4.5259,19.36,0.2416,http://internal-drone-net/cam/frame_00047200.jpg
47300,-0.0269,0.034,-0.0085,4.8387,21.08,0.017,http://internal-drone-net/cam/frame_00047300.jpg
47400,0.0105,-0.0228,0.0784,4.8281,17.57,0.0779,http://internal-drone-net/cam/frame_00047400.jpg
47500,-0.0286,0.0152,0.0305,4.9062,21.43,0.2478,http://internal-drone-net/cam/frame_00047500.jpg
47600,0.0096,-0.0139,-0.0188,5.2365,23.59,0.1081,http://internal-drone-net/cam/frame_00047600.jpg
47700,0.0223,0.0211,-0.0103,5.121,20.7,0.0868,http://internal-drone-net/cam/frame_00047700.jpg
47800,-0.0367,-0.0157,-0.0657,5.3533,20.42,0.1693,http://internal-drone-net/cam/frame_00047800.jpg
47900,0.0059,0.0133,0.0271,5.2939,21.25,0.0759,http://internal-drone-net/cam/frame_00047900.jpg
48000,0.018,0.0338,-0.0227,5.1789,25.26,0.1809,http://internal-drone-net/cam/frame_00048000.jpg
48100,-0.0153,0.0146,0.0914,5.1836,17.08,0.07,http://internal-drone-net/cam/frame_00048100.jpg
48200,0.0215,0.0065,-0.0404,5.142,18.32,0.0135,http://internal-drone-net/cam/frame_00048200.jpg
48300,0.0107,-0.0063,-0.1057,4.9582,29.57,0.0245,http://internal-drone-net/cam/frame_00048300.jpg
48400,0.0289,-0.0441,0.0038,4.9455,22.48,0.0524,http://internal-drone-net/cam/frame_00048400.jpg
48500,0.039,-0.0155,0.0039,5.3244,28.61,0.027,http://internal-drone-net/cam/frame_00048500.jpg
48600,-0.0214,-0.0056,0.0314,4.9521,19.5,0.2144,http://internal-drone-net/cam/frame_00048600.jpg
48700,0.003,0.0236,0.0122,5.0223,27.13,0.2838,http://internal-drone-net/cam/frame_00048700.jpg
48800,0.0243,0.0347,0.0326,4.7725,18.69,0.0049,http://internal-drone-net/cam/frame_00048800.jpg
48900,0.0142,-0.0152,-0.0623,4.606,24.53,0.1206,http://internal-drone-net/cam/frame_00048900.jpg
49000,-0.026,-0.0152,-0.0189,5.0553,30.37,0.0039,http://internal-drone-net/cam/frame_00049000.jpg
49100,-0.0168,0.0284,0.1383,5.0198,20.01,0.1166,http://internal-drone-net/cam/frame_00049100.jpg
49200,-0.0006,0.0055,-0.0141,4.8762,25.09,0.1596,http://internal-drone-net/cam/frame_00049200.jpg
49300,-0.0327,0.0241,0.0507,4.8365,26.12,0.0946,http://internal-drone-net/cam/frame_00049300.jpg
49400,0.0346,0.0141,-0.0458,5.0653,21.56,0.2102,http://internal-drone-net/cam/frame_00049400.jpg
49500,0.0288,-0.0092,0.0542,5.149,24.56,0.1851,http://internal-drone-net/cam/frame_00049500.jpg
49600,0.0511,-0.0128,-0.0148,4.952,16.87,0.1624,http://internal-drone-net/cam/frame_00049600.jpg
49700,-0.0254,0.0394,0.1139,5.1315,23.7,0.0757,http://internal-drone-net/cam/frame_00049700.jpg
49800,0.0069,0.0257,0.0418,5.0478,25.2,0.2191,http://internal-drone-net/cam/frame_00049800.jpg
49900,-0.0184,-0.0405,0.1082,5.1197,25.96,0.2734,http://internal-drone-net/cam/frame_00049900.jpg
50000,0.0153,0.0202,-0.0187,4.9689,24.49,0.0994,http://internal-drone-net/cam/frame_00050000.jpg
50100,-0.0236,0.0044,-0.029,4.5488,27.44,0.2908,http://internal-drone-net/cam/frame_00050100.jpg
50200,-0.025,0.0004,-0.0091,4.9011,18.1,0.1974,http://internal-drone-net/cam/frame_00050200.jpg
50300,-0.0048,-0.0043,-0.0343,4.8144,26.23,0.1162,http://internal-drone-net/cam/frame_00050300.jpg
50400,0.0035,0.0102,0.0996,4.8441,27.89,0.2864,http://internal-drone-net/cam/frame_00050400.jpg
50500,0.0298,-0.0167,-0.0271,4.6407,24.41,0.1175,http://internal-drone-net/cam/frame_00050500.jpg
50600,0.0016,-0.0136,-0.042,5.1353,27.73,0.1786,http://internal-drone-net/cam/frame_00050600.jpg
50700,0.0278,0.0025,0.046,5.037,16.65,0.2724,http://internal-drone-net/cam/frame_00050700.jpg
50800,-0.0044,-0.023,-0.0385,4.9119,31.69,0.1787,http://internal-drone-net/cam/frame_00050800.jpg
50900,-0.0166,0.0219,0.0159,4.9908,28.28,0.235,http://internal-drone-net/cam/frame_00050900.jpg
51000,-0.002,-0.0099,0.028,4.8373,26.0,0.1549,http://internal-drone-net/cam/frame_00051000.jpg
51100,-0.0017,-0.0118,0.0236,5.2758,27.1,0.0397,http://internal-drone-net/cam/frame_00051100.jpg
51200,0.0026,-0.0118,-0.0632,5.3059,27.24,0.2707,http://internal-drone-net/cam/frame_00051200.jpg
51300,0.0242,0.0228,-0.0725,5.0652,27.01,0.1664,http://internal-drone-net/cam/frame_00051300.jpg
51400,-0.0304,0.0349,0.0621,5.1147,29.66,0.2874,http://internal-drone-net/cam/frame_00051400.jpg
51500,0.0387,0.028,0.0253,5.2206,19.12,0.157,http://internal-drone-net/cam/frame_00051500.jpg
51600,-0.0243,-0.0042,-0.0296,5.047,27.79,0.0553,http://internal-drone-net/cam/frame_00051600.jpg
51700,-0.05,-0.0475,-0.0068,5.0572,19.43,0.2517,http://internal-drone-net/cam/frame_00051700.jpg
51800,0.0025,-0.0147,-0.0364,5.0019,27.04,0.1698,http://internal-drone-net/cam/frame_00051800.jpg
51900,0.0119,-0.0098,0.0034,5.4207,22.99,0.0232,http://internal-drone-net/cam/frame_00051900.jpg
52000,0.0064,0.0026,-0.0819,5.0239,24.44,0.0428,http://internal-drone-net/cam/frame_00052000.jpg
52100,0.0354,-0.0528,0.0051,4.7773,23.11,0.0072,http://internal-drone-net/cam/frame_00052100.jpg
52200,-0.0183,0.0227,0.0055,5.1015,30.64,0.1179,http://internal-drone-net/cam/frame_00052200.jpg
52300,0.0529,-0.0179,0.052,4.7192,26.78,0.2347,http://internal-drone-net/cam/frame_00052300.jpg
52400,-0.0099,0.0119,0.0251,4.9303,22.13,0.1198,http://internal-drone-net/cam/frame_00052400.jpg
52500,0.032,0.024,0.0539,4.8892,30.8,0.2412,http://internal-drone-net/cam/frame_00052500.jpg
52600,-0.005,-0.0214,0.008,4.9268,25.14,0.1646,http://internal-drone-net/cam/frame_00052600.jpg
52700,-0.0166,-0.02,0.0003,5.0797,25.1,0.0476,http://internal-drone-net/cam/frame_00052700.jpg
52800,-0.0525,-0.0104,0.0684,4.7663,28.68,0.1073,http://internal-drone-net/cam/frame_00052800.jpg
52900,-0.0272,-0.0279,0.0132,5.514,31.06,0.2227,http://internal-drone-net/cam/frame_00052900.jpg
53000,-0.0324,0.0087,0.0602,4.8752,19.43,0.2085,http://internal-drone-net/cam/frame_00053000.jpg
53100,0.0488,-0.008,0.0414,4.9476,18.67,0.1257,http://internal-drone-net/cam/frame_00053100.jpg
53200,-0.0,-0.0046,-0.0924,5.0239,19.76,0.0857,http://internal-drone-net/cam/frame_00053200.jpg
53300,-0.0012,0.0171,-0.018,4.8218,21.3,0.1222,http://internal-drone-net/cam/frame_00053300.jpg
53400,0.0187,0.0037,-0.0019,5.01,30.16,0.1791,http://internal-drone-net/cam/frame_00053400.jpg
53500,0.0165,-0.0114,-0.0219,5.0289,26.45,0.0596,http://internal-drone-net/cam/frame_00053500.jpg
53600,-0.0311,0.0373,0.0261,4.633,27.61,0.1846,http://internal-drone-net/cam/frame_00053600.jpg
53700,-0.0313,0.0267,0.0047,4.8562,32.64,0.2396,http://internal-drone-net/cam/frame_00053700.jpg
53800,0.0381,0.0151,-0.0054,5.1999,20.31,0.2037,http://internal-drone-net/cam/frame_00053800.jpg
53900,0.009,-0.0095,-0.0182,4.9447,18.48,0.2577,http://internal-drone-net/cam/frame_00053900.jpg
54000,0.0158,0.0157,-0.0566,5.1518,32.4,0.0938,http://internal-drone-net/cam/frame_00054000.jpg
54100,-0.014,0.0152,0.0094,5.2009,29.64,0.2897,http://internal-drone-net/cam/frame_00054100.jpg
54200,0.0106,0.0324,0.0191,4.8357,18.33,0.062,http://internal-drone-net/cam/frame_00054200.jpg
54300,0.0153,-0.01,-0.089,5.2581,20.48,0.0807,http://internal-drone-net/cam/frame_00054300.jpg
54400,0.0268,-0.0139,0.0055,5.0152,20.97,0.2691,http://internal-drone-net/cam/frame_00054400.jpg
54500,-0.0146,-0.0058,-0.0578,4.9954,20.14,0.0951,http://internal-drone-net/cam/frame_00054500.jpg
54600,-0.0113,0.0085,-0.0189,5.1435,21.08,0.2071,http://internal-drone-net/cam/frame_00054600.jpg
54700,0.0002,-0.0209,0.0615,5.4441,26.17,0.0936,http://internal-drone-net/cam/frame_00054700.jpg
54800,0.0241,0.0155,-0.0064,5.0681,30.73,0.2436,http://internal-drone-net/cam/frame_00054800.jpg
54900,-0.0144,0.0169,-0.0213,5.0804,31.81,0.0757,http://internal-drone-net/cam/frame_00054900.jpg
55000,-0.007,0.021,-0.0102,5.3613,19.8,0.0505,http://internal-drone-net/cam/frame_00055000.jpg
55100,0.0361,-0.0172,0.0106,5.0182,22.43,0.2486,http://internal-drone-net/cam/frame_00055100.jpg
55200,0.0095,0.0187,-0.0297,5.0629,25.45,0.2091,http://internal-drone-net/cam/frame_00055200.jpg
55300,-0.0186,0.0015,0.0304,4.9558,29.86,0.1894,http://internal-drone-net/cam/frame_00055300.jpg
55400,-0.0205,-0.0061,0.0498,4.8541,19.38,0.0032,http://internal-drone-net/cam/frame_00055400.jpg
55500,-0.0251,-0.0544,0.0111,4.7263,29.23,0.264,http://internal-drone-net/cam/frame_00055500.jpg
55600,0.0043,-0.0112,-0.0569,5.0049,28.2,0.1786,http://internal-drone-net/cam/frame_00055600.jpg
55700,-0.0097,-0.0199,-0.0191,5.102,34.39,0.1374,http://internal-drone-net/cam/frame_00055700.jpg
55800,0.0179,-0.0334,0.0042,5.3302,24.67,0.2987,http://internal-drone-net/cam/frame_00055800.jpg
55900,-0.0082,0.0096,0.031,4.7182,23.39,0.0503,http://internal-drone-net/cam/frame_00055900.jpg
56000,-0.0024,0.0148,0.0075,4.9423,29.64,0.0357,http://internal-drone-net/cam/frame_00056000.jpg
56100,0.0161,-0.0021,-0.0745,5.2911,25.1,0.2407,http://internal-drone-net/cam/frame_00056100.jpg
56200,0.0228,0.0006,0.0952,4.8789,30.65,0.2598,http://internal-drone-net/cam/frame_00056200.jpg
56300,0.0059,0.005,0.0752,4.998,28.69,0.2976,http://internal-drone-net/cam/frame_00056300.jpg
56400,-0.0284,-0.0103,0.0144,4.8875,27.41,0.2457,http://internal-drone-net/cam/frame_00056400.jpg
56500,-0.0265,-0.0132,-0.0395,5.0471,19.75,0.1131,http://internal-drone-net/cam/frame_00056500.jpg
56600,-0.0144,-0.0062,-0.0008,5.1832,29.34,0.286,http://internal-drone-net/cam/frame_00056600.jpg
56700,-0.0098,-0.0077,-0.0529,4.8159,24.76,0.1905,http://internal-drone-net/cam/frame_00056700.jpg
56800,-0.0161,0.0017,0.0243,4.9064,27.98,0.2866,http://internal-drone-net/cam/frame_00056800.jpg
56900,0.0014,-0.0128,0.011,5.314,33.99,0.0867,http://internal-drone-net/cam/frame_00056900.jpg
57000,0.0098,-0.0174,0.0466,4.5533,31.8,0.0503,http://internal-drone-net/cam/frame_00057000.jpg
57100,0.026,0.0033,0.0008,5.1581,22.73,0.0262,http://internal-drone-net/cam/frame_00057100.jpg
57200,-0.0027,0.0082,-0.0252,4.9811,29.34,0.0129,http://internal-drone-net/cam/frame_00057200.jpg
57300,-0.011,0.0263,-0.0067,5.0807,27.62,0.1028,http://internal-drone-net/cam/frame_00057300.jpg
57400,0.0056,0.0172,-0.019,4.9338,21.45,0.2425,http://internal-drone-net/cam/frame_00057400.jpg
57500,0.0264,0.006,-0.0554,4.7196,34.47,0.2443,http://internal-drone-net/cam/frame_00057500.jpg
57600,-0.0156,-0.0205,-0.0139,4.9326,30.91,0.1928,http://internal-drone-net/cam/frame_00057600.jpg
57700,0.0107,0.0282,0.0702,4.9025,31.96,0.054,http://internal-drone-net/cam/frame_00057700.jpg
57800,-0.0222,0.0229,-0.0164,5.1602,35.1,0.0167,http://internal-drone-net/cam/frame_00057800.jpg
57900,-0.0053,-0.0212,-0.0692,4.8928,30.08,0.0923,http://internal-drone-net/cam/frame_00057900.jpg
58000,0.0201,0.0024,0.0331,4.8386,34.38,0.1662,http://internal-drone-net/cam/frame_00058000.jpg
58100,0.0119,0.0265,-0.0215,4.9508,23.41,0.1016,http://internal-drone-net/cam/frame_00058100.jpg
58200,-0.0048,-0.0334,0.0309,5.3019,23.92,0.0681,http://internal-drone-net/cam/frame_00058200.jpg
58300,-0.002,-0.0115,0.0394,5.0595,28.99,0.1055,http://internal-drone-net/cam/frame_00058300.jpg
58400,-0.0108,0.0213,0.0757,5.0796,31.11,0.1301,http://internal-drone-net/cam/frame_00058400.jpg
58500,0.0114,0.0157,-0.0278,5.0319,25.07,0.2535,http://internal-drone-net/cam/frame_00058500.jpg
58600,-0.0111,0.0388,-0.0062,4.8862,28.88,0.2247,http://internal-drone-net/cam/frame_00058600.jpg
58700,0.0324,-0.0131,0.0244,5.0594,30.06,0.2246,http://internal-drone-net/cam/frame_00058700.jpg
58800,0.0012,0.019,-0.0442,4.4823,24.42,0.2122,http://internal-drone-net/cam/frame_00058800.jpg
58900,-0.0237,0.0036,-0.0073,5.1505,30.41,0.0459,http://internal-drone-net/cam/frame_00058900.jpg
59000,-0.0372,0.0173,0.0759,5.1317,34.35,0.1945,http://internal-drone-net/cam/frame_00059000.jpg
59100,0.0301,0.0233,-0.0275,4.6709,26.98,0.102,http://internal-drone-net/cam/frame_00059100.jpg
59200,-0.0066,0.0072,0.0048,4.9711,35.48,0.1291,http://internal-drone-net/cam/frame_00059200.jpg
59300,0.0104,0.0126,0.0919,4.7665,29.46,0.2574,http://internal-drone-net/cam/frame_00059300.jpg
59400,0.0067,0.0034,0.0294,4.9832,34.45,0.1583,http://internal-drone-net/cam/frame_00059400.jpg
59500,0.0251,-0.023,-0.0352,5.497,35.73,0.1139,http://internal-drone-net/cam/frame_00059500.jpg
59600,-0.0255,0.0076,0.0038,5.0248,34.17,0.2,http://internal-drone-net/cam/frame_00059600.jpg
59700,0.0071,-0.0282,0.1251,4.5884,37.42,0.2416,http://internal-drone-net/cam/frame_00059700.jpg
59800,-0.0152,0.0386,-0.0063,4.8348,24.99,0.083,http://internal-drone-net/cam/frame_00059800.jpg
59900,0.0164,0.0237,-0.0097,5.0009,27.84,0.011,http://internal-drone-net/cam/frame_00059900.jpg
60000,0.0006,-0.0054,0.0298,4.9535,25.03,0.2222,http://internal-drone-net/cam/frame_00060000.jpg
60100,-0.0319,-0.0152,0.0189,4.98,37.19,0.0318,http://internal-drone-net/cam/frame_00060100.jpg
60200,0.0315,0.0006,-0.0358,4.878,31.58,0.0186,http://internal-drone-net/cam/frame_00060200.jpg
60300,-0.0316,-0.0012,-0.0106,4.8958,30.16,0.1733,http://internal-drone-net/cam/frame_00060300.jpg
60400,-0.0055,-0.0163,-0.0618,4.7756,28.06,0.0298,http://internal-drone-net/cam/frame_00060400.jpg
60500,0.0199,-0.0146,0.0508,4.7872,25.67,0.1446,http://internal-drone-net/cam/frame_00060500.jpg
60600,0.0175,-0.0006,-0.0482,4.769,34.96,0.1831,http://internal-drone-net/cam/frame_00060600.jpg
60700,0.0229,-0.0188,-0.0615,5.0385,30.84,0.0048,http://internal-drone-net/cam/frame_00060700.jpg
60800,0.0047,-0.0108,0.0685,4.6734,28.48,0.2798,http://internal-drone-net/cam/frame_00060800.jpg
60900,0.0285,0.0066,-0.0505,4.8998,26.28,0.2698,http://internal-drone-net/cam/frame_00060900.jpg
61000,0.0153,0.0225,-0.0198,4.8465,34.17,0.0903,http://internal-drone-net/cam/frame_00061000.jpg
61100,-0.0265,-0.0019,0.081,5.1126,27.06,0.1406,http://internal-drone-net/cam/frame_00061100.jpg
61200,-0.0081,0.0294,-0.0145,4.9277,32.37,0.1696,http://internal-drone-net/cam/frame_00061200.jpg
61300,0.0013,0.0016,-0.0253,5.0159,33.68,0.274,http://internal-drone-net/cam/frame_00061300.jpg
61400,0.0033,0.0083,-0.009,5.0324,38.6,0.109,http://internal-drone-net/cam/frame_00061400.jpg
61500,0.0154,0.013,-0.0609,5.2035,37.22,0.0191,http://internal-drone-net/cam/frame_00061500.jpg
61600,0.0242,-0.0099,-0.049,4.7821,32.54,0.1304,http://internal-drone-net/cam/frame_00061600.jpg
61700,0.0284,-0.0217,-0.0547,4.8824,32.08,0.2227,http://internal-drone-net/cam/frame_00061700.jpg
61800,-0.0254,-0.002,-0.0073,4.9359,38.23,0.1064,http://internal-drone-net/cam/frame_00061800.jpg
61900,0.02,0.0339,-0.0318,5.3369,36.35,0.1232,http://internal-drone-net/cam/frame_00061900.jpg
